[{"id": "503", "buildingType": "Athletics Facilities", "name": "Beren Tennis Center ", "department": "Athletics Facilities", "lat": "42.36926", "lon": "-71.128021"}, {"id": "2618", "buildingType": "Athletics Facilities", "name": "Cumnock Field", "department": "Athletics Facilities", "lat": "", "lon": ""}, {"id": "1667", "buildingType": "Athletics Facilities", "name": "Harvard Athletic Ticket Office (Murr Center)", "department": "Athletics Facilities", "lat": "42.367563", "lon": "-71.125851"}, {"id": "517", "buildingType": "Athletics Facilities", "name": "Jordan Field", "department": "Athletics Facilities", "lat": "", "lon": ""}, {"id": "568", "buildingType": "Athletics Facilities", "name": "McCurdy Track", "department": "Athletics Facilities", "lat": "", "lon": ""}, {"id": "527", "buildingType": "Athletics Facilities", "name": "O'Donnell Field", "department": "Athletics Facilities", "lat": "", "lon": ""}, {"id": "569", "buildingType": "Athletics Facilities", "name": "Ohiri Field ", "department": "Athletics Facilities", "lat": "", "lon": ""}, {"id": "4867", "buildingType": "Athletics Facilities", "name": "Soldiers Field (softball)", "department": "Athletics Facilities", "lat": "", "lon": ""}, {"id": "222", "buildingType": "Athletics Facilities", "name": "Soldiers Field Athletics Area", "department": "Athletics Facilities", "lat": "", "lon": ""}, {"id": "4998", "buildingType": "Departments, Centers,", "name": "Office for Equity, Diversity & Inclusion", "department": "Departments, Centers,", "lat": "42.372588", "lon": "-71.117477"}, {"id": "4997", "buildingType": "Departments, Centers,", "name": "Office of BGLTQ Student Life", "department": "Departments, Centers,", "lat": "42.372588", "lon": "-71.117477"}, {"id": "4984", "buildingType": "Departments, Centers, Institutes", "name": "Accessible Education Office (Smith Campus  Center)", "department": "Departments, Centers, Institutes", "lat": "42.372654", "lon": "-71.11868"}, {"id": "2510", "buildingType": "Departments, Centers, Institutes", "name": "Admissions Visitor Center (Agassiz House, 5 James St)", "department": "Departments, Centers, Institutes", "lat": "42.376086", "lon": "-71.123162"}, {"id": "4983", "buildingType": "Departments, Centers, Institutes", "name": "Advising Programs Office (Smith Campus  Center)", "department": "Departments, Centers, Institutes", "lat": "42.372654", "lon": "-71.11868"}, {"id": "1687", "buildingType": "Departments, Centers, Institutes", "name": "Aga Khan Program for Islamic Art and Architecture (Sackler Museum)", "department": "Departments, Centers, Institutes", "lat": "42.375133", "lon": "-71.114088"}, {"id": "1726", "buildingType": "Departments, Centers, Institutes", "name": "Alumni Affairs and Development Office (124 Mt Auburn St)", "department": "Departments, Centers, Institutes", "lat": "42.372973", "lon": "-71.123696"}, {"id": "1689", "buildingType": "Departments, Centers, Institutes", "name": "American Repertory Theatre (ART, Loeb Drama Center, 64 Brattle Street)", "department": "Departments, Centers, Institutes", "lat": "42.374862", "lon": "-71.122976"}, {"id": "4873", "buildingType": "Departments, Centers, Institutes", "name": "American Studies (Barker Center)", "department": "Departments, Centers, Institutes", "lat": "42.37262", "lon": "-71.114523"}, {"id": "1693", "buildingType": "Departments, Centers, Institutes", "name": "Arnold Arboretum", "department": "Departments, Centers, Institutes", "lat": "42.307389", "lon": "-71.120828"}, {"id": "1654", "buildingType": "Departments, Centers, Institutes", "name": "Ash Center for Democratic Governance and Innovation (124 Mt Auburn St)", "department": "Departments, Centers, Institutes", "lat": "42.372973", "lon": "-71.123696"}, {"id": "2131", "buildingType": "Departments, Centers, Institutes", "name": "Asia Center (CGIS South)", "department": "Departments, Centers, Institutes", "lat": "42.375029", "lon": "-71.113141"}, {"id": "1697", "buildingType": "Departments, Centers, Institutes", "name": "Athletic Department (Murr Center)", "department": "Departments, Centers, Institutes", "lat": "42.367563", "lon": "-71.125851"}, {"id": "1642", "buildingType": "Departments, Centers, Institutes", "name": "Bauer Center for Genomics Research (Bauer Laboratory)", "department": "Departments, Centers, Institutes", "lat": "42.377772", "lon": "-71.114922"}, {"id": "1623", "buildingType": "Departments, Centers, Institutes", "name": "Belfer Center for Science and International Affairs (Belfer, Room 223)", "department": "Departments, Centers, Institutes", "lat": "42.371418", "lon": "-71.121536"}, {"id": "1576", "buildingType": "Departments, Centers, Institutes", "name": "Berkman Center for Internet & Society (23 Everett St)", "department": "Departments, Centers, Institutes", "lat": "42.379724", "lon": "-71.117366"}, {"id": "2696", "buildingType": "Departments, Centers, Institutes", "name": "Biological Chemistry & Molecular Pharmacology (C1)", "department": "Departments, Centers, Institutes", "lat": "42.335839", "lon": "-71.103356"}, {"id": "1569", "buildingType": "Departments, Centers, Institutes", "name": "Bureau of Study Counsel (5 Linden Street)", "department": "Departments, Centers, Institutes", "lat": "42.372588", "lon": "-71.117477"}, {"id": "1633", "buildingType": "Departments, Centers, Institutes", "name": "Business School Health Service (Cumnock Hall)", "department": "Departments, Centers, Institutes", "lat": "42.365639", "lon": "-71.122769"}, {"id": "1504", "buildingType": "Departments, Centers, Institutes", "name": "Cancer Research Animal Facility (see Sch of Dental Medicine)", "department": "Departments, Centers, Institutes", "lat": "42.336163", "lon": "-71.102046"}, {"id": "1600", "buildingType": "Departments, Centers, Institutes", "name": "Carr Center for Human Rights Policy (79 JFK St)", "department": "Departments, Centers, Institutes", "lat": "42.371246", "lon": "-71.122702"}, {"id": "2143", "buildingType": "Departments, Centers, Institutes", "name": "Center for American Political Studies (Knafel)", "department": "Departments, Centers, Institutes", "lat": "42.375638", "lon": "-71.113246"}, {"id": "1770", "buildingType": "Departments, Centers, Institutes", "name": "Center for Animal Resources and Comparative Medicine (SPH2)", "department": "Departments, Centers, Institutes", "lat": "42.335697", "lon": "-71.101941"}, {"id": "1727", "buildingType": "Departments, Centers, Institutes", "name": "Center for Basic Research in the Social Sciences (34 Kirkland St)", "department": "Departments, Centers, Institutes", "lat": "42.37656", "lon": "-71.113079"}, {"id": "2524", "buildingType": "Departments, Centers, Institutes", "name": "Center for Behavioral Sciences (William James Hall, 33 Kirkland St)", "department": "Departments, Centers, Institutes", "lat": "42.377155", "lon": "-71.113468"}, {"id": "1771", "buildingType": "Departments, Centers, Institutes", "name": "Center for Biochemical and Biophysical Sciences and Medicine (New Research Building)", "department": "Departments, Centers, Institutes", "lat": "42.338528", "lon": "-71.103087"}, {"id": "2525", "buildingType": "Departments, Centers, Institutes", "name": "Center for Brain Science (Northwest Building)", "department": "Departments, Centers, Institutes", "lat": "42.37999", "lon": "-71.115396"}, {"id": "1777", "buildingType": "Departments, Centers, Institutes", "name": "Center for Health and Global Environment (Landmark Center)", "department": "Departments, Centers, Institutes", "lat": "42.344858", "lon": "-71.102538"}, {"id": "2695", "buildingType": "Departments, Centers, Institutes", "name": "Center for Health Decision Science (718 Huntington Avenue)", "department": "Departments, Centers, Institutes", "lat": "42.33412", "lon": "-71.104209"}, {"id": "1747", "buildingType": "Departments, Centers, Institutes", "name": "Center for Imaging and Mesoscales Structures (Cruft Laboratory)", "department": "Departments, Centers, Institutes", "lat": "42.377733", "lon": "-71.116934"}, {"id": "1748", "buildingType": "Departments, Centers, Institutes", "name": "Center for Intelligent Control Systems (Maxwell Dworkin)", "department": "Departments, Centers, Institutes", "lat": "42.378806", "lon": "-71.117358"}, {"id": "1640", "buildingType": "Departments, Centers, Institutes", "name": "Center for International Development (CID, Rubenstein)", "department": "Departments, Centers, Institutes", "lat": "42.371246", "lon": "-71.122702"}, {"id": "1751", "buildingType": "Departments, Centers, Institutes", "name": "Center for Jewish Studies (Semitic Museum)", "department": "Departments, Centers, Institutes", "lat": "42.378085", "lon": "-71.113947"}, {"id": "1594", "buildingType": "Departments, Centers, Institutes", "name": "Center for Middle Eastern Studies (CMES, 38 Kirkland St)", "department": "Departments, Centers, Institutes", "lat": "42.376624", "lon": "-71.112633"}, {"id": "4908", "buildingType": "Departments, Centers, Institutes", "name": "Center for Nanoscale Systems (LISE)", "department": "Departments, Centers, Institutes", "lat": "42.377209", "lon": "-71.116685"}, {"id": "1757", "buildingType": "Departments, Centers, Institutes", "name": "Center for Population and Development Studies (9 Bow St)", "department": "Departments, Centers, Institutes", "lat": "42.37187", "lon": "-71.115846"}, {"id": "1656", "buildingType": "Departments, Centers, Institutes", "name": "Center for Public Leadership (CPL, Taubman)", "department": "Departments, Centers, Institutes", "lat": "42.371846", "lon": "-71.122071"}, {"id": "4909", "buildingType": "Departments, Centers, Institutes", "name": "Center for Research on Computation and Society (CRCS, Maxwell Dworkin)", "department": "Departments, Centers, Institutes", "lat": "42.378806", "lon": "-71.117358"}, {"id": "2613", "buildingType": "Departments, Centers, Institutes", "name": "Center for Systems Biology (Northwest Science Building)", "department": "Departments, Centers, Institutes", "lat": "42.37999", "lon": "-71.115396"}, {"id": "1768", "buildingType": "Departments, Centers, Institutes", "name": "Center for the Study of World Religions (CSWR, 42 Francis Ave)", "department": "Departments, Centers, Institutes", "lat": "42.380173", "lon": "-71.111959"}, {"id": "1761", "buildingType": "Departments, Centers, Institutes", "name": "Center for Training and Development (124 Mt Auburn St)", "department": "Departments, Centers, Institutes", "lat": "42.372973", "lon": "-71.123696"}, {"id": "1765", "buildingType": "Departments, Centers, Institutes", "name": "Center for Urban Development Studies (1033 Mass Ave)", "department": "Departments, Centers, Institutes", "lat": "42.369877", "lon": "-71.112048"}, {"id": "1767", "buildingType": "Departments, Centers, Institutes", "name": "Center for Wellness and Health Communication (114 Mt Auburn St)", "department": "Departments, Centers, Institutes", "lat": "42.372858", "lon": "-71.122062"}, {"id": "1730", "buildingType": "Departments, Centers, Institutes", "name": "Ceramics Studio (224 Western Avenue)", "department": "Departments, Centers, Institutes", "lat": "42.362609", "lon": "-71.131218"}, {"id": "1688", "buildingType": "Departments, Centers, Institutes", "name": "Charles Warren Center for Studies in American History (Emerson Hall)", "department": "Departments, Centers, Institutes", "lat": "42.373869", "lon": "-71.1152"}, {"id": "1593", "buildingType": "Departments, Centers, Institutes", "name": "David Rockefeller Center for Latin American Studies (DRCLAS, CGIS South)", "department": "Departments, Centers, Institutes", "lat": "42.375029", "lon": "-71.113141"}, {"id": "2132", "buildingType": "Departments, Centers, Institutes", "name": "Davis Center for Russian & Eurasian Studies (CGIS South)", "department": "Departments, Centers, Institutes", "lat": "42.375029", "lon": "-71.113141"}, {"id": "1683", "buildingType": "Departments, Centers, Institutes", "name": "Department of African and African-American Studies (Barker Center)", "department": "Departments, Centers, Institutes", "lat": "42.37262", "lon": "-71.114523"}, {"id": "1686", "buildingType": "Departments, Centers, Institutes", "name": "Department of Afro-American Studies (Barker Center)", "department": "Departments, Centers, Institutes", "lat": "42.37262", "lon": "-71.114523"}, {"id": "1690", "buildingType": "Departments, Centers, Institutes", "name": "Department of Anthropology (Peabody Museum)", "department": "Departments, Centers, Institutes", "lat": "42.378199", "lon": "-71.114931"}, {"id": "1695", "buildingType": "Departments, Centers, Institutes", "name": "Department of Architecture (Gund Hall)", "department": "Departments, Centers, Institutes", "lat": "42.375909", "lon": "-71.113859"}, {"id": "1696", "buildingType": "Departments, Centers, Institutes", "name": "Department of Astronomy (Perkin Lab)", "department": "Departments, Centers, Institutes", "lat": "42.381237", "lon": "-71.127791"}, {"id": "1772", "buildingType": "Departments, Centers, Institutes", "name": "Department of Biological Chemistry and Molecular Pharmacology (Building C-1)", "department": "Departments, Centers, Institutes", "lat": "42.335839", "lon": "-71.103356"}, {"id": "1773", "buildingType": "Departments, Centers, Institutes", "name": "Department of Cell Biology (Building C1)", "department": "Departments, Centers, Institutes", "lat": "42.335839", "lon": "-71.103356"}, {"id": "1699", "buildingType": "Departments, Centers, Institutes", "name": "Department of Celtic Languages and Literature (Barker Center)", "department": "Departments, Centers, Institutes", "lat": "42.37262", "lon": "-71.114523"}, {"id": "1700", "buildingType": "Departments, Centers, Institutes", "name": "Department of Chemistry & Chemical Biology (Mallinckrodt Laboratory)", "department": "Departments, Centers, Institutes", "lat": "42.377353", "lon": "-71.115665"}, {"id": "2526", "buildingType": "Departments, Centers, Institutes", "name": "Department of Classics (Boylston Hall)", "department": "Departments, Centers, Institutes", "lat": "42.373338", "lon": "-71.117302"}, {"id": "1583", "buildingType": "Departments, Centers, Institutes", "name": "Department of Earth and Planetary Sciences (Hoffman Lab)", "department": "Departments, Centers, Institutes", "lat": "42.377992", "lon": "-71.115919"}, {"id": "1703", "buildingType": "Departments, Centers, Institutes", "name": "Department of East Asian Languages and Civilizations (2 Divinity Avenue)", "department": "Departments, Centers, Institutes", "lat": "42.377673", "lon": "-71.113725"}, {"id": "1599", "buildingType": "Departments, Centers, Institutes", "name": "Department of Economics (Littauer Center)", "department": "Departments, Centers, Institutes", "lat": "42.376427", "lon": "-71.118243"}, {"id": "1704", "buildingType": "Departments, Centers, Institutes", "name": "Department of English and American Literature and Language (Barker Center)", "department": "Departments, Centers, Institutes", "lat": "42.37262", "lon": "-71.114523"}, {"id": "1774", "buildingType": "Departments, Centers, Institutes", "name": "Department of Genetics (New Research Building)", "department": "Departments, Centers, Institutes", "lat": "42.338528", "lon": "-71.103087"}, {"id": "1705", "buildingType": "Departments, Centers, Institutes", "name": "Department of Germanic Languages and Literatures (Barker Center)", "department": "Departments, Centers, Institutes", "lat": "42.37262", "lon": "-71.114523"}, {"id": "2697", "buildingType": "Departments, Centers, Institutes", "name": "Department of Global Health and Social Medicine (641 Huntington Ave)", "department": "Departments, Centers, Institutes", "lat": "42.33585", "lon": "-71.100949"}, {"id": "1706", "buildingType": "Departments, Centers, Institutes", "name": "Department of Government (CGIS Knafel)", "department": "Departments, Centers, Institutes", "lat": "42.375638", "lon": "-71.113246"}, {"id": "2698", "buildingType": "Departments, Centers, Institutes", "name": "Department of Health Care Policy (180 Longwood Ave)", "department": "Departments, Centers, Institutes", "lat": "42.336055", "lon": "-71.101458"}, {"id": "1707", "buildingType": "Departments, Centers, Institutes", "name": "Department of History (Robinson Hall)", "department": "Departments, Centers, Institutes", "lat": "42.374728", "lon": "-71.114957"}, {"id": "1708", "buildingType": "Departments, Centers, Institutes", "name": "Department of History of Art and Architecture (Sackler Museum)", "department": "Departments, Centers, Institutes", "lat": "42.375133", "lon": "-71.114088"}, {"id": "1692", "buildingType": "Departments, Centers, Institutes", "name": "Department of Landscape Architecture (Gund Hall)", "department": "Departments, Centers, Institutes", "lat": "42.375909", "lon": "-71.113859"}, {"id": "1710", "buildingType": "Departments, Centers, Institutes", "name": "Department of Linguistics (Boylston Hall)", "department": "Departments, Centers, Institutes", "lat": "42.373338", "lon": "-71.117302"}, {"id": "1702", "buildingType": "Departments, Centers, Institutes", "name": "Department of Literaturen and Comparative Literature (Dana Palmer)", "department": "Departments, Centers, Institutes", "lat": "42.37301", "lon": "-71.114686"}, {"id": "1711", "buildingType": "Departments, Centers, Institutes", "name": "Department of Mathematics (Science Center)", "department": "Departments, Centers, Institutes", "lat": "42.376356", "lon": "-71.11665"}, {"id": "1778", "buildingType": "Departments, Centers, Institutes", "name": "Department of Microbiology and Molecular Genetics (Armenise Building 1)", "department": "Departments, Centers, Institutes", "lat": "42.336472", "lon": "-71.102921"}, {"id": "1712", "buildingType": "Departments, Centers, Institutes", "name": "Department of Molecular and Cellular Biology (Northwest  Science Building)", "department": "Departments, Centers, Institutes", "lat": "42.377552", "lon": "-71.114553"}, {"id": "1713", "buildingType": "Departments, Centers, Institutes", "name": "Department of Music (Music Building)", "department": "Departments, Centers, Institutes", "lat": "42.376858", "lon": "-71.11716"}, {"id": "1714", "buildingType": "Departments, Centers, Institutes", "name": "Department of Near Eastern Languages and Civilizations (Semitic Museum)", "department": "Departments, Centers, Institutes", "lat": "42.378085", "lon": "-71.113947"}, {"id": "2699", "buildingType": "Departments, Centers, Institutes", "name": "Department of Neurobiology (Goldenson)", "department": "Departments, Centers, Institutes", "lat": "42.335839", "lon": "-71.103356"}, {"id": "1715", "buildingType": "Departments, Centers, Institutes", "name": "Department of Organismic and Evolutionary Biology (26 Oxford Street)", "department": "Departments, Centers, Institutes", "lat": "42.378945", "lon": "-71.115224"}, {"id": "2700", "buildingType": "Departments, Centers, Institutes", "name": "Department of Pathology (New Research Building)", "department": "Departments, Centers, Institutes", "lat": "42.338528", "lon": "-71.103087"}, {"id": "1716", "buildingType": "Departments, Centers, Institutes", "name": "Department of Philosophy (Emerson Hall)", "department": "Departments, Centers, Institutes", "lat": "42.373869", "lon": "-71.1152"}, {"id": "1717", "buildingType": "Departments, Centers, Institutes", "name": "Department of Physics (Jefferson Lab)", "department": "Departments, Centers, Institutes", "lat": "42.377257", "lon": "-71.117545"}, {"id": "1718", "buildingType": "Departments, Centers, Institutes", "name": "Department of Psychology (William James Hall)", "department": "Departments, Centers, Institutes", "lat": "42.377155", "lon": "-71.113468"}, {"id": "1719", "buildingType": "Departments, Centers, Institutes", "name": "Department of Romance Languages and Literatures (Boylston Hall)", "department": "Departments, Centers, Institutes", "lat": "42.373338", "lon": "-71.117302"}, {"id": "1721", "buildingType": "Departments, Centers, Institutes", "name": "Department of Slavic Languages and Literatures (Barker Center)", "department": "Departments, Centers, Institutes", "lat": "42.37262", "lon": "-71.114523"}, {"id": "1722", "buildingType": "Departments, Centers, Institutes", "name": "Department of Sociology (William James Hall)", "department": "Departments, Centers, Institutes", "lat": "42.377155", "lon": "-71.113468"}, {"id": "4964", "buildingType": "Departments, Centers, Institutes", "name": "Department of South Studies (1 Bow Street)", "department": "Departments, Centers, Institutes", "lat": "42.372231", "lon": "-71.11603"}, {"id": "1723", "buildingType": "Departments, Centers, Institutes", "name": "Department of Statistics (Science Center)", "department": "Departments, Centers, Institutes", "lat": "42.376356", "lon": "-71.11665"}, {"id": "2617", "buildingType": "Departments, Centers, Institutes", "name": "Department of Stem Cell and Regenerative Biology (42 Church Street)", "department": "Departments, Centers, Institutes", "lat": "42.374221", "lon": "-71.120347"}, {"id": "2701", "buildingType": "Departments, Centers, Institutes", "name": "Department of Systems Biology (Warren Alpert Building)", "department": "Departments, Centers, Institutes", "lat": "", "lon": ""}, {"id": "1701", "buildingType": "Departments, Centers, Institutes", "name": "Department of the Classics (Boylston Hall)", "department": "Departments, Centers, Institutes", "lat": "42.373338", "lon": "-71.117302"}, {"id": "1709", "buildingType": "Departments, Centers, Institutes", "name": "Department of the History of Science (Science Center)", "department": "Departments, Centers, Institutes", "lat": "42.376356", "lon": "-71.11665"}, {"id": "1766", "buildingType": "Departments, Centers, Institutes", "name": "Department of Urban Planning and Design (Gund Hall)", "department": "Departments, Centers, Institutes", "lat": "42.375909", "lon": "-71.113859"}, {"id": "1724", "buildingType": "Departments, Centers, Institutes", "name": "Department of Visual and Environmental Studies (Carpenter Center, 24 Quincy St)", "department": "Departments, Centers, Institutes", "lat": "42.373617", "lon": "-71.114283"}, {"id": "1620", "buildingType": "Departments, Centers, Institutes", "name": "Derek Bok Center for Teaching and Learning (Science Center 318)", "department": "Departments, Centers, Institutes", "lat": "42.376356", "lon": "-71.11665"}, {"id": "2528", "buildingType": "Departments, Centers, Institutes", "name": "Dining Services (HUDS, 65-67 Winthrop Street)", "department": "Departments, Centers, Institutes", "lat": "42.372076", "lon": "-71.119979"}, {"id": "1732", "buildingType": "Departments, Centers, Institutes", "name": "Division of Continuing Education (DCE, 51 Brattle Street)", "department": "Departments, Centers, Institutes", "lat": "42.374494", "lon": "-71.121491"}, {"id": "1655", "buildingType": "Departments, Centers, Institutes", "name": "Edmond J Safra Center for Ethics (Taubman)", "department": "Departments, Centers, Institutes", "lat": "42.371846", "lon": "-71.122071"}, {"id": "2133", "buildingType": "Departments, Centers, Institutes", "name": "Edwin O Reischauer Institute of Japanese Studies (CGIS South)", "department": "Departments, Centers, Institutes", "lat": "42.375029", "lon": "-71.113141"}, {"id": "2529", "buildingType": "Departments, Centers, Institutes", "name": "Engineering and Utilities (UOS, 46 Blackstone Street)", "department": "Departments, Centers, Institutes", "lat": "42.363622", "lon": "-71.114941"}, {"id": "2530", "buildingType": "Departments, Centers, Institutes", "name": "Environmental Health and Safety Office  (UOS, 46 Blackstone Street)", "department": "Departments, Centers, Institutes", "lat": "42.363622", "lon": "-71.114941"}, {"id": "855", "buildingType": "Departments, Centers, Institutes", "name": "Events and Information Center (Smith Campus Center, 30 Dunster St @ Mt Auburn St)", "department": "Departments, Centers, Institutes", "lat": "42.372654", "lon": "-71.11868"}, {"id": "1595", "buildingType": "Departments, Centers, Institutes", "name": "Expository Writing (8 Prescott Street)", "department": "Departments, Centers, Institutes", "lat": "42.372579", "lon": "-71.113842"}, {"id": "2531", "buildingType": "Departments, Centers, Institutes", "name": "Facilities Maintenance Operations  (UOS, 46 Blackstone Street)", "department": "Departments, Centers, Institutes", "lat": "42.363622", "lon": "-71.114941"}, {"id": "2521", "buildingType": "Departments, Centers, Institutes", "name": "Faculty of Arts and Sciences (FAS, University Hall)", "department": "Departments, Centers, Institutes", "lat": "42.37446", "lon": "-71.117072"}, {"id": "2134", "buildingType": "Departments, Centers, Institutes", "name": "Fairbank Center for Chinese Research  (CGIS South)", "department": "Departments, Centers, Institutes", "lat": "42.375029", "lon": "-71.113141"}, {"id": "2532", "buildingType": "Departments, Centers, Institutes", "name": "Film Study Center (Sever Hall)", "department": "Departments, Centers, Institutes", "lat": "42.37437", "lon": "-71.115491"}, {"id": "2512", "buildingType": "Departments, Centers, Institutes", "name": "Financial Aid Office (Cronkhite, 86 Brattle Street)", "department": "Departments, Centers, Institutes", "lat": "42.375414", "lon": "-71.124304"}, {"id": "2511", "buildingType": "Departments, Centers, Institutes", "name": "Financial Aid Office, Harvard College (Cronkhite, 86 Brattle St)", "department": "Departments, Centers, Institutes", "lat": "42.375414", "lon": "-71.124304"}, {"id": "1578", "buildingType": "Departments, Centers, Institutes", "name": "Freshman Dean's Office (FDO, Morton Prince)", "department": "Departments, Centers, Institutes", "lat": "42.372394", "lon": "-71.113835"}, {"id": "4876", "buildingType": "Departments, Centers, Institutes", "name": "Freshman Seminar Program (Morton Prince House)", "department": "Departments, Centers, Institutes", "lat": "42.372394", "lon": "-71.113835"}, {"id": "4928", "buildingType": "Departments, Centers, Institutes", "name": "Global Support Services (14 Story Street)", "department": "Departments, Centers, Institutes", "lat": "42.373747", "lon": "-71.122508"}, {"id": "2504", "buildingType": "Departments, Centers, Institutes", "name": "Graduate School of Arts and Sciences (GSAS Offices:Smith Campus Center)", "department": "Departments, Centers, Institutes", "lat": "42.372654", "lon": "-71.11868"}, {"id": "4896", "buildingType": "Departments, Centers, Institutes", "name": "Harvard Campus Service Center (Smith Campus Center, 8th Flr)", "department": "Departments, Centers, Institutes", "lat": "42.372654", "lon": "-71.11868"}, {"id": "1740", "buildingType": "Departments, Centers, Institutes", "name": "Harvard Center for Textile and Apparel Research (Pierce Hall)", "department": "Departments, Centers, Institutes", "lat": "42.378231", "lon": "-71.117131"}, {"id": "2523", "buildingType": "Departments, Centers, Institutes", "name": "Harvard College Observatory (Perkin Lab)", "department": "Departments, Centers, Institutes", "lat": "42.381237", "lon": "-71.127791"}, {"id": "2616", "buildingType": "Departments, Centers, Institutes", "name": "Harvard College Women's Center (Canaday Hall B)", "department": "Departments, Centers, Institutes", "lat": "42.375446", "lon": "-71.115983"}, {"id": "4902", "buildingType": "Departments, Centers, Institutes", "name": "Harvard Decision Science Laboratory (124 Mt Auburn St)", "department": "Departments, Centers, Institutes", "lat": "42.372973", "lon": "-71.123696"}, {"id": "4992", "buildingType": "Departments, Centers, Institutes", "name": "Harvard Dental Services (114 Mount Auburn Street)", "department": "Departments, Centers, Institutes", "lat": "42.372858", "lon": "-71.122062"}, {"id": "2623", "buildingType": "Departments, Centers, Institutes", "name": "Harvard Foundation for Intercultural and Race Relations (Thayer Hall)", "department": "Departments, Centers, Institutes", "lat": "42.375037", "lon": "-71.116741"}, {"id": "1529", "buildingType": "Departments, Centers, Institutes", "name": "Harvard Hillel (Rosovsky Hall )", "department": "Departments, Centers, Institutes", "lat": "", "lon": ""}, {"id": "4914", "buildingType": "Departments, Centers, Institutes", "name": "Harvard Innovation Lab (i-lab, Batten Hall)", "department": "Departments, Centers, Institutes", "lat": "42.364076", "lon": "-71.124137"}, {"id": "1616", "buildingType": "Departments, Centers, Institutes", "name": "Harvard International Office (HIO, Smith Campus Center)", "department": "Departments, Centers, Institutes", "lat": "42.372654", "lon": "-71.11868"}, {"id": "1741", "buildingType": "Departments, Centers, Institutes", "name": "Harvard Magazine (7 Ware Street)", "department": "Departments, Centers, Institutes", "lat": "42.372419", "lon": "-71.113444"}, {"id": "1776", "buildingType": "Departments, Centers, Institutes", "name": "Harvard NeuroDiscovery Center (Goldenson)", "department": "Departments, Centers, Institutes", "lat": "42.335839", "lon": "-71.103356"}, {"id": "1743", "buildingType": "Departments, Centers, Institutes", "name": "Harvard Planning and Project Management (HPPM, Smith Campus Center)", "department": "Departments, Centers, Institutes", "lat": "42.372654", "lon": "-71.11868"}, {"id": "2635", "buildingType": "Departments, Centers, Institutes", "name": "Harvard Public Affairs and Communications (Smith Campus Center)", "department": "Departments, Centers, Institutes", "lat": "42.372654", "lon": "-71.11868"}, {"id": "1744", "buildingType": "Departments, Centers, Institutes", "name": "Harvard Real Estate Services (HRES, Smith Campus Center)", "department": "Departments, Centers, Institutes", "lat": "42.372654", "lon": "-71.11868"}, {"id": "1734", "buildingType": "Departments, Centers, Institutes", "name": "Harvard University Center for the Environment (HUCE, University Museum, 24 Oxford Street)", "department": "Departments, Centers, Institutes", "lat": "42.378469", "lon": "-71.115582"}, {"id": "887", "buildingType": "Departments, Centers, Institutes", "name": "Harvard University Health Services (HUHS, Smith Campus Center, 75 Mt Auburn St)", "department": "Departments, Centers, Institutes", "lat": "42.372209", "lon": "-71.11872"}, {"id": "4993", "buildingType": "Departments, Centers, Institutes", "name": "Harvard University Health Services Pharmacy  (Smith Campus Center, 75 Mt Auburn St)", "department": "Departments, Centers, Institutes", "lat": "42.372209", "lon": "-71.11872"}, {"id": "2620", "buildingType": "Departments, Centers, Institutes", "name": "Harvard University Health Services, HBS (Cumnock Hall)", "department": "Departments, Centers, Institutes", "lat": "42.365639", "lon": "-71.122769"}, {"id": "1769", "buildingType": "Departments, Centers, Institutes", "name": "Harvard University Health Services, Longwood (Vanderbilt, 275 Longwood Ave)", "department": "Departments, Centers, Institutes", "lat": "42.337641", "lon": "-71.103696"}, {"id": "1760", "buildingType": "Departments, Centers, Institutes", "name": "Harvard University Press (Kittredge Hall)", "department": "Departments, Centers, Institutes", "lat": "42.383033", "lon": "-71.127068"}, {"id": "1627", "buildingType": "Departments, Centers, Institutes", "name": "Harvard Yenching Institute (2 Divinity Ave)", "department": "Departments, Centers, Institutes", "lat": "42.377673", "lon": "-71.113725"}, {"id": "2534", "buildingType": "Departments, Centers, Institutes", "name": "Harvard-MIT Data Center  (Knafel)", "department": "Departments, Centers, Institutes", "lat": "42.375638", "lon": "-71.113246"}, {"id": "4937", "buildingType": "Departments, Centers, Institutes", "name": "Harvard-Smithsonian Center for Astrophysics (160 Concord Ave.)", "department": "Departments, Centers, Institutes", "lat": "42.381715", "lon": "-71.130736"}, {"id": "154", "buildingType": "Departments, Centers, Institutes", "name": "Harvard-Smithsonian Center for Astrophysics (Perkin Lab)", "department": "Departments, Centers, Institutes", "lat": "42.381237", "lon": "-71.127791"}, {"id": "1617", "buildingType": "Departments, Centers, Institutes", "name": "Hauser Center for Nonprofit Organizations (79 JFK St)", "department": "Departments, Centers, Institutes", "lat": "42.371418", "lon": "-71.121536"}, {"id": "4950", "buildingType": "Departments, Centers, Institutes", "name": "Hutchins Center for African and African American Research  (104 Mt Auburn St, 3R)", "department": "Departments, Centers, Institutes", "lat": "42.372621", "lon": "-71.121017"}, {"id": "4977", "buildingType": "Departments, Centers, Institutes", "name": "Institute for Applied Computational Science (Northwest Building)", "department": "Departments, Centers, Institutes", "lat": "42.37999", "lon": "-71.115396"}, {"id": "2694", "buildingType": "Departments, Centers, Institutes", "name": "Institute for Global Health (HIGH, 104 Mount Auburn Street)", "department": "Departments, Centers, Institutes", "lat": "42.372621", "lon": "-71.121017"}, {"id": "2142", "buildingType": "Departments, Centers, Institutes", "name": "Institute for Quantitative Social Science (Knafel)", "department": "Departments, Centers, Institutes", "lat": "42.375638", "lon": "-71.113246"}, {"id": "1597", "buildingType": "Departments, Centers, Institutes", "name": "Institute of Politics (IOP, Littauer Building)", "department": "Departments, Centers, Institutes", "lat": "42.371042", "lon": "-71.122054"}, {"id": "2702", "buildingType": "Departments, Centers, Institutes", "name": "Jeffrey Modell Center for Immunology (Armenise)", "department": "Departments, Centers, Institutes", "lat": "42.336472", "lon": "-71.102921"}, {"id": "1657", "buildingType": "Departments, Centers, Institutes", "name": "Joint Center for Housing Studies (1033 Massachusetts Avenue)", "department": "Departments, Centers, Institutes", "lat": "42.369877", "lon": "-71.112048"}, {"id": "2135", "buildingType": "Departments, Centers, Institutes", "name": "Korea Institute (CGIS South)", "department": "Departments, Centers, Institutes", "lat": "42.375029", "lon": "-71.113141"}, {"id": "2138", "buildingType": "Departments, Centers, Institutes", "name": "Laboratory for Particle Physics and Cosmology (LPPC, Palfrey House)", "department": "Departments, Centers, Institutes", "lat": "42.380656", "lon": "-71.115725"}, {"id": "2535", "buildingType": "Departments, Centers, Institutes", "name": "Landscape Institute (30 Chauncy Street)", "department": "Departments, Centers, Institutes", "lat": "42.378962", "lon": "-71.12357"}, {"id": "1753", "buildingType": "Departments, Centers, Institutes", "name": "LASPAU: Academic and Professional Programs for the Americas (25 Mt Auburn Street)", "department": "Departments, Centers, Institutes", "lat": "42.370872", "lon": "-71.114845"}, {"id": "1634", "buildingType": "Departments, Centers, Institutes", "name": "Law School Health Service (Pound Hall)", "department": "Departments, Centers, Institutes", "lat": "42.378662", "lon": "-71.119413"}, {"id": "1598", "buildingType": "Departments, Centers, Institutes", "name": "Mahindra Humanities Center (Barker Center)", "department": "Departments, Centers, Institutes", "lat": "42.37262", "lon": "-71.114523"}, {"id": "1635", "buildingType": "Departments, Centers, Institutes", "name": "Medical Area Health Service (Vanderbilt Hall)", "department": "Departments, Centers, Institutes", "lat": "42.337641", "lon": "-71.103696"}, {"id": "1536", "buildingType": "Departments, Centers, Institutes", "name": "Minda de Gunzburg Center for European Studies (27 Kirkland Street)", "department": "Departments, Centers, Institutes", "lat": "42.376985", "lon": "-71.114302"}, {"id": "1652", "buildingType": "Departments, Centers, Institutes", "name": "Mossaver-Rahmani Center for Business and Government (Weil Hall, Belfer, 4th floor)", "department": "Departments, Centers, Institutes", "lat": "42.371418", "lon": "-71.121536"}, {"id": "2126", "buildingType": "Departments, Centers, Institutes", "name": "Native American Program (14 Story Street)", "department": "Departments, Centers, Institutes", "lat": "42.373747", "lon": "-71.122508"}, {"id": "1571", "buildingType": "Departments, Centers, Institutes", "name": "Office for the Arts (OFA, 74 Mt Auburn St)", "department": "Departments, Centers, Institutes", "lat": "42.371768", "lon": "-71.11854"}, {"id": "1682", "buildingType": "Departments, Centers, Institutes", "name": "Office of Admissions, Harvard College (Cronkhite, 86 Brattle Street)", "department": "Departments, Centers, Institutes", "lat": "42.375414", "lon": "-71.124304"}, {"id": "1544", "buildingType": "Departments, Centers, Institutes", "name": "Office of Career Services (OCS, 54 Dunster St)", "department": "Departments, Centers, Institutes", "lat": "42.371831", "lon": "-71.119358"}, {"id": "1745", "buildingType": "Departments, Centers, Institutes", "name": "Office of Human Resources (Smith Campus Center)", "department": "Departments, Centers, Institutes", "lat": "42.372654", "lon": "-71.11868"}, {"id": "1614", "buildingType": "Departments, Centers, Institutes", "name": "Office of International Education (OIE, 77 Dunster St)", "department": "Departments, Centers, Institutes", "lat": "42.371404", "lon": "-71.120003"}, {"id": "4926", "buildingType": "Departments, Centers, Institutes", "name": "Office of Student Life (University Hall)", "department": "Departments, Centers, Institutes", "lat": "42.37446", "lon": "-71.117072"}, {"id": "1587", "buildingType": "Departments, Centers, Institutes", "name": "Office of the Dean of Harvard College (University Hall)", "department": "Departments, Centers, Institutes", "lat": "42.37446", "lon": "-71.117072"}, {"id": "2533", "buildingType": "Departments, Centers, Institutes", "name": "Office of the General Counsel (Smith Campus Center)", "department": "Departments, Centers, Institutes", "lat": "42.372654", "lon": "-71.11868"}, {"id": "4980", "buildingType": "Departments, Centers, Institutes", "name": "Office of the Registrar (Smith Campus Center, Suite 450)", "department": "Departments, Centers, Institutes", "lat": "42.372654", "lon": "-71.11868"}, {"id": "4854", "buildingType": "Departments, Centers, Institutes", "name": "Office of Work/Life (124 Mt Auburn St)", "department": "Departments, Centers, Institutes", "lat": "42.372973", "lon": "-71.123696"}, {"id": "4945", "buildingType": "Departments, Centers, Institutes", "name": "Office of Work/Life, Longwood (Kresge Building, 677 Huntington Ave)", "department": "Departments, Centers, Institutes", "lat": "42.335304", "lon": "-71.102848"}, {"id": "4996", "buildingType": "Departments, Centers, Institutes", "name": "Outings & Innings (44R Brattle Street)", "department": "Departments, Centers, Institutes", "lat": "42.373522", "lon": "-71.122306"}, {"id": "1756", "buildingType": "Departments, Centers, Institutes", "name": "Paleobotanical Laboratories (University Museum)", "department": "Departments, Centers, Institutes", "lat": "42.378469", "lon": "-71.115582"}, {"id": "1763", "buildingType": "Departments, Centers, Institutes", "name": "Parking Services (Smith Campus Center, 8th Flr)", "department": "Departments, Centers, Institutes", "lat": "42.372654", "lon": "-71.11868"}, {"id": "1584", "buildingType": "Departments, Centers, Institutes", "name": "PBHA (Phillips Brooks House)", "department": "Departments, Centers, Institutes", "lat": "42.375654", "lon": "-71.11792"}, {"id": "2140", "buildingType": "Departments, Centers, Institutes", "name": "Petrie-Flom Center for Health Law Policy, Biotechnology, Bioethics", "department": "Departments, Centers, Institutes", "lat": "42.380174", "lon": "-71.117961"}, {"id": "1759", "buildingType": "Departments, Centers, Institutes", "name": "President's Office (Massachusetts Hall)", "department": "Departments, Centers, Institutes", "lat": "42.374451", "lon": "-71.118287"}, {"id": "2692", "buildingType": "Departments, Centers, Institutes", "name": "Program in General Education (Smith Campus Center, 470)", "department": "Departments, Centers, Institutes", "lat": "42.372654", "lon": "-71.11868"}, {"id": "2689", "buildingType": "Departments, Centers, Institutes", "name": "Program on Education Policy and Governance (PEPG, Taubman)", "department": "Departments, Centers, Institutes", "lat": "42.371846", "lon": "-71.122071"}, {"id": "4912", "buildingType": "Departments, Centers, Institutes", "name": "Program on US-Japan Relations", "department": "Departments, Centers, Institutes", "lat": "42.377909", "lon": "-71.11023"}, {"id": "1503", "buildingType": "Departments, Centers, Institutes", "name": "Radcliffe Fellowship Program (formerly Bunting Institute, 34 Concord Ave)", "department": "Departments, Centers, Institutes", "lat": "42.379686", "lon": "-71.12659"}, {"id": "1590", "buildingType": "Departments, Centers, Institutes", "name": "Radcliffe Institute for Advanced Study (Fay House, 10 Garden St)", "department": "Departments, Centers, Institutes", "lat": "42.376226", "lon": "-71.122353"}, {"id": "1659", "buildingType": "Departments, Centers, Institutes", "name": "Rappaport Institute for Greater Boston (Taubman)", "department": "Departments, Centers, Institutes", "lat": "42.371846", "lon": "-71.122071"}, {"id": "4957", "buildingType": "Departments, Centers, Institutes", "name": "Recycling and Surplus Center, 28 Travis Street", "department": "Departments, Centers, Institutes", "lat": "42.362119", "lon": "-71.127656"}, {"id": "4981", "buildingType": "Departments, Centers, Institutes", "name": "Registrar's Office (Smith Campus Center, Suite 450)", "department": "Departments, Centers, Institutes", "lat": "42.372654", "lon": "-71.11868"}, {"id": "1648", "buildingType": "Departments, Centers, Institutes", "name": "Reisman Center (Rosovsky Hall)", "department": "Departments, Centers, Institutes", "lat": "", "lon": ""}, {"id": "1545", "buildingType": "Departments, Centers, Institutes", "name": "Rieman Center for the Performing Arts (Agassiz House)", "department": "Departments, Centers, Institutes", "lat": "42.376086", "lon": "-71.123162"}, {"id": "1720", "buildingType": "Departments, Centers, Institutes", "name": "Sanskrit and Indian Studies (1 Bow Street)", "department": "Departments, Centers, Institutes", "lat": "42.372231", "lon": "-71.11603"}, {"id": "1580", "buildingType": "Departments, Centers, Institutes", "name": "Shorenstein Center on the Press, Politics & Public Policy (Taubman)", "department": "Departments, Centers, Institutes", "lat": "42.371846", "lon": "-71.122071"}, {"id": "2522", "buildingType": "Departments, Centers, Institutes", "name": "Smithsonian Astrophysical Observatory (Perkin Lab)", "department": "Departments, Centers, Institutes", "lat": "42.381237", "lon": "-71.127791"}, {"id": "2536", "buildingType": "Departments, Centers, Institutes", "name": "Stem Cell Institute (Smith Campus Center)", "department": "Departments, Centers, Institutes", "lat": "42.375524", "lon": "-71.117222"}, {"id": "2513", "buildingType": "Departments, Centers, Institutes", "name": "Student Employment Office (SEO; Cronkhite, 86 Brattle St)", "department": "Departments, Centers, Institutes", "lat": "42.375414", "lon": "-71.124304"}, {"id": "2544", "buildingType": "Departments, Centers, Institutes", "name": "Student Organization Center at Hilles (SOCH)", "department": "Departments, Centers, Institutes", "lat": "42.380904", "lon": "-71.125108"}, {"id": "1639", "buildingType": "Departments, Centers, Institutes", "name": "Taubman Center for State and Local Government (Taubman)", "department": "Departments, Centers, Institutes", "lat": "42.371846", "lon": "-71.122071"}, {"id": "1762", "buildingType": "Departments, Centers, Institutes", "name": "Transportation Services (UOS, 175 North Harvard St)", "department": "Departments, Centers, Institutes", "lat": "42.364156", "lon": "-71.129333"}, {"id": "1764", "buildingType": "Departments, Centers, Institutes", "name": "Ukrainian Research Institute (34 Kirkland St)", "department": "Departments, Centers, Institutes", "lat": "42.37656", "lon": "-71.113079"}, {"id": "1733", "buildingType": "Departments, Centers, Institutes", "name": "University Development Office (124 Mt Auburn St)", "department": "Departments, Centers, Institutes", "lat": "42.372973", "lon": "-71.123696"}, {"id": "2538", "buildingType": "Departments, Centers, Institutes", "name": "University Operations Services (UOS, 46 Blackstone Street)", "department": "Departments, Centers, Institutes", "lat": "42.363622", "lon": "-71.114941"}, {"id": "2520", "buildingType": "Departments, Centers, Institutes", "name": "University Planning Office (Smith Campus Center)", "department": "Departments, Centers, Institutes", "lat": "42.372654", "lon": "-71.11868"}, {"id": "982", "buildingType": "Departments, Centers, Institutes", "name": "University Police, Cambridge  (HUPD, 1033 Massachusetts Ave)", "department": "Departments, Centers, Institutes", "lat": "42.369877", "lon": "-71.112048"}, {"id": "1418", "buildingType": "Departments, Centers, Institutes", "name": "University Police, Longwood (HUPD, 180 Longwood Ave)", "department": "Departments, Centers, Institutes", "lat": "42.336055", "lon": "-71.101458"}, {"id": "1611", "buildingType": "Departments, Centers, Institutes", "name": "W E B Du Bois Institute for African and African American Research  (104 Mt Auburn St, 3R)", "department": "Departments, Centers, Institutes", "lat": "42.372621", "lon": "-71.121017"}, {"id": "2136", "buildingType": "Departments, Centers, Institutes", "name": "Weatherhead Center for International Affairs (WCFIA, Knafel)", "department": "Departments, Centers, Institutes", "lat": "42.375638", "lon": "-71.113246"}, {"id": "1658", "buildingType": "Departments, Centers, Institutes", "name": "Wiener Center for Social Policy (Taubman)", "department": "Departments, Centers, Institutes", "lat": "42.371846", "lon": "-71.122071"}, {"id": "1601", "buildingType": "Departments, Centers, Institutes", "name": "Writing Center (Barker Center)", "department": "Departments, Centers, Institutes", "lat": "42.37262", "lon": "-71.114523"}, {"id": "2612", "buildingType": "Departments, Centers, Institutes", "name": "Wyss Institute for Biologically Inspired Engineering (Center for Life Sciences)", "department": "Departments, Centers, Institutes", "lat": "42.338338", "lon": "-71.103642"}, {"id": "2144", "buildingType": "Harvard Buildings", "name": "0 Arrow Street", "department": "Harvard Buildings", "lat": "42.370897", "lon": "-71.114478"}, {"id": "1549", "buildingType": "Harvard Buildings", "name": "1 Bow Street", "department": "Harvard Buildings", "lat": "42.372231", "lon": "-71.11603"}, {"id": "2626", "buildingType": "Harvard Buildings", "name": "1 Brattle Square", "department": "Harvard Buildings", "lat": "-71.121477", "lon": "-71.121477"}, {"id": "2114", "buildingType": "Harvard Buildings", "name": "1 Eliot (Rubenstein)", "department": "Harvard Buildings", "lat": "42.371246", "lon": "-71.122702"}, {"id": "420", "buildingType": "Harvard Buildings", "name": "1 Story Street", "department": "Harvard Buildings", "lat": "42.374318", "lon": "-71.122105"}, {"id": "4929", "buildingType": "Harvard Buildings", "name": "1 Summer Street", "department": "Harvard Buildings", "lat": "42.354589", "lon": "-71.060028"}, {"id": "1551", "buildingType": "Harvard Buildings", "name": "1 Western Ave", "department": "Harvard Buildings", "lat": "42.36465", "lon": "-71.119111"}, {"id": "2628", "buildingType": "Harvard Buildings", "name": "10 Akron Street", "department": "Harvard Buildings", "lat": "42.365267", "lon": "-71.115582"}, {"id": "4890", "buildingType": "Harvard Buildings", "name": "10 Everett Street Garage", "department": "Harvard Buildings", "lat": "42.379374", "lon": "-71.119401"}, {"id": "661", "buildingType": "Harvard Buildings", "name": "10 Mellen Street", "department": "Harvard Buildings", "lat": "42.380631", "lon": "-71.118765"}, {"id": "774", "buildingType": "Harvard Buildings", "name": "10 Ware Street", "department": "Harvard Buildings", "lat": "42.372583", "lon": "-71.11257"}, {"id": "421", "buildingType": "Harvard Buildings", "name": "10.5 Appian Way", "department": "Harvard Buildings", "lat": "42.375167", "lon": "-71.12132"}, {"id": "98", "buildingType": "Harvard Buildings", "name": "100 Holton Street", "department": "Harvard Buildings", "lat": "42.359577", "lon": "-71.137828"}, {"id": "937", "buildingType": "Harvard Buildings", "name": "101 Plympton Street", "department": "Harvard Buildings", "lat": "42.370056", "lon": "-71.118039"}, {"id": "312", "buildingType": "Harvard Buildings", "name": "103 Walker Street", "department": "Harvard Buildings", "lat": "42.381722", "lon": "-71.12322"}, {"id": "1307", "buildingType": "Harvard Buildings", "name": "1033 Massachusetts Avenue", "department": "Harvard Buildings", "lat": "42.369877", "lon": "-71.112048"}, {"id": "775", "buildingType": "Harvard Buildings", "name": "104 Mount Auburn Street", "department": "Harvard Buildings", "lat": "42.372621", "lon": "-71.121017"}, {"id": "1643", "buildingType": "Harvard Buildings", "name": "104 Mt Auburn Street", "department": "Harvard Buildings", "lat": "42.372621", "lon": "-71.121017"}, {"id": "313", "buildingType": "Harvard Buildings", "name": "107 Walker Street", "department": "Harvard Buildings", "lat": "42.38191", "lon": "-71.123316"}, {"id": "99", "buildingType": "Harvard Buildings", "name": "108 Holton Street", "department": "Harvard Buildings", "lat": "42.359473", "lon": "-71.139415"}, {"id": "4939", "buildingType": "Harvard Buildings", "name": "1090 Centre Street", "department": "Harvard Buildings", "lat": "42.302687", "lon": "-71.12491"}, {"id": "2677", "buildingType": "Harvard Buildings", "name": "11 Grant Street", "department": "Harvard Buildings", "lat": "42.369718", "lon": "-71.115489"}, {"id": "2667", "buildingType": "Harvard Buildings", "name": "11 Kirkland Place", "department": "Harvard Buildings", "lat": "42.378055", "lon": "-71.113538"}, {"id": "938", "buildingType": "Harvard Buildings", "name": "11 Riverview", "department": "Harvard Buildings", "lat": "42.369924", "lon": "-71.118139"}, {"id": "776", "buildingType": "Harvard Buildings", "name": "11 Sumner Rd.", "department": "Harvard Buildings", "lat": "42.376131", "lon": "-71.112819"}, {"id": "224", "buildingType": "Harvard Buildings", "name": "1120 Soldiers Field Rd.", "department": "Harvard Buildings", "lat": "42.366116", "lon": "-71.132109"}, {"id": "314", "buildingType": "Harvard Buildings", "name": "113 Walker Street", "department": "Harvard Buildings", "lat": "42.382084", "lon": "-71.123539"}, {"id": "2595", "buildingType": "Harvard Buildings", "name": "11-33 Shaler Lane", "department": "Harvard Buildings", "lat": "42.375526", "lon": "-71.131378"}, {"id": "4985", "buildingType": "Harvard Buildings", "name": "114 Mount Auburn Street", "department": "Harvard Buildings", "lat": "42.372858", "lon": "-71.122062"}, {"id": "545", "buildingType": "Harvard Buildings", "name": "114-124 Western Avenue", "department": "Harvard Buildings", "lat": "42.363213", "lon": "-71.124471"}, {"id": "2560", "buildingType": "Harvard Buildings", "name": "118 Banks Street", "department": "Harvard Buildings", "lat": "42.367858", "lon": "-71.114546"}, {"id": "939", "buildingType": "Harvard Buildings", "name": "1-2 Athens Terrace", "department": "Harvard Buildings", "lat": "42.36994", "lon": "-71.115307"}, {"id": "662", "buildingType": "Harvard Buildings", "name": "12 Mellen Street", "department": "Harvard Buildings", "lat": "42.38061", "lon": "-71.118626"}, {"id": "885", "buildingType": "Harvard Buildings", "name": "1201 Massachusetts Ave", "department": "Harvard Buildings", "lat": "42.371944", "lon": "-71.114734"}, {"id": "940", "buildingType": "Harvard Buildings", "name": "12-12.5 Grant Street", "department": "Harvard Buildings", "lat": "42.369398", "lon": "-71.115421"}, {"id": "2597", "buildingType": "Harvard Buildings", "name": "12-24 Shaler Lane", "department": "Harvard Buildings", "lat": "42.375356", "lon": "-71.131605"}, {"id": "225", "buildingType": "Harvard Buildings", "name": "1230 Soldiers Field Rd.", "department": "Harvard Buildings", "lat": "42.36422", "lon": "-71.135783"}, {"id": "422", "buildingType": "Harvard Buildings", "name": "124 Mount Auburn Street", "department": "Harvard Buildings", "lat": "42.372973", "lon": "-71.123696"}, {"id": "1557", "buildingType": "Harvard Buildings", "name": "124 Mt Auburn Street", "department": "Harvard Buildings", "lat": "42.372973", "lon": "-71.123696"}, {"id": "423", "buildingType": "Harvard Buildings", "name": "125 Mount Auburn Street", "department": "Harvard Buildings", "lat": "42.373569", "lon": "-71.122875"}, {"id": "548", "buildingType": "Harvard Buildings", "name": "125 Western Avenue", "department": "Harvard Buildings", "lat": "42.364076", "lon": "-71.124137"}, {"id": "424", "buildingType": "Harvard Buildings", "name": "126 Mount Auburn Street", "department": "Harvard Buildings", "lat": "42.373437", "lon": "-71.123756"}, {"id": "1668", "buildingType": "Harvard Buildings", "name": "126 Mt Auburn Street", "department": "Harvard Buildings", "lat": "42.373437", "lon": "-71.123756"}, {"id": "777", "buildingType": "Harvard Buildings", "name": "1280 Massachusetts Avenue", "department": "Harvard Buildings", "lat": "", "lon": ""}, {"id": "2660", "buildingType": "Harvard Buildings", "name": "1284 Soldiers Field Road", "department": "Harvard Buildings", "lat": "42.363023", "lon": "-71.139674"}, {"id": "778", "buildingType": "Harvard Buildings", "name": "13 Sumner Rd.", "department": "Harvard Buildings", "lat": "42.376172", "lon": "-71.112758"}, {"id": "2663", "buildingType": "Harvard Buildings", "name": "1300 Soldiers Field Road", "department": "Harvard Buildings", "lat": "42.363082", "lon": "-71.140321"}, {"id": "779", "buildingType": "Harvard Buildings", "name": "1306 Massachusetts Avenue", "department": "Harvard Buildings", "lat": "42.372781", "lon": "-71.117476"}, {"id": "425", "buildingType": "Harvard Buildings", "name": "132 Mount Auburn Street", "department": "Harvard Buildings", "lat": "42.373448", "lon": "-71.124182"}, {"id": "2661", "buildingType": "Harvard Buildings", "name": "1330 Soldiers Field Road", "department": "Harvard Buildings", "lat": "42.362994", "lon": "-71.141195"}, {"id": "2646", "buildingType": "Harvard Buildings", "name": "134 Mount Auburn Street", "department": "Harvard Buildings", "lat": "42.373612", "lon": "-71.124125"}, {"id": "2682", "buildingType": "Harvard Buildings", "name": "1340 Soldiers Field Road", "department": "Harvard Buildings", "lat": "42.362904", "lon": "-71.141563"}, {"id": "575", "buildingType": "Harvard Buildings", "name": "135 Western Avenue", "department": "Harvard Buildings", "lat": "42.363854", "lon": "-71.125756"}, {"id": "90", "buildingType": "Harvard Buildings", "name": "1360 Soldiers Field Rd. (demolished)", "department": "Harvard Buildings", "lat": "", "lon": ""}, {"id": "2666", "buildingType": "Harvard Buildings", "name": "1389 Soldiers Field Road", "department": "Harvard Buildings", "lat": "42.362525", "lon": "-71.143017"}, {"id": "2627", "buildingType": "Harvard Buildings", "name": "14 Rena Street", "department": "Harvard Buildings", "lat": "42.361257", "lon": "-71.128105"}, {"id": "426", "buildingType": "Harvard Buildings", "name": "14 Story Street", "department": "Harvard Buildings", "lat": "42.373747", "lon": "-71.122508"}, {"id": "427", "buildingType": "Harvard Buildings", "name": "140-142 Mount Auburn Street", "department": "Harvard Buildings", "lat": "42.373791", "lon": "-71.124616"}, {"id": "550", "buildingType": "Harvard Buildings", "name": "141 North Harvard Street", "department": "Harvard Buildings", "lat": "42.364904", "lon": "-71.129563"}, {"id": "2501", "buildingType": "Harvard Buildings", "name": "1414 Mass Ave", "department": "Harvard Buildings", "lat": "42.373951", "lon": "-71.1196"}, {"id": "780", "buildingType": "Harvard Buildings", "name": "1414 Massachusetts Avenue", "department": "Harvard Buildings", "lat": "42.373951", "lon": "-71.1196"}, {"id": "663", "buildingType": "Harvard Buildings", "name": "14-16 Mellen Street", "department": "Harvard Buildings", "lat": "42.380604", "lon": "-71.118407"}, {"id": "2502", "buildingType": "Harvard Buildings", "name": "1430 Mass Ave", "department": "Harvard Buildings", "lat": "42.374143", "lon": "-71.11927"}, {"id": "781", "buildingType": "Harvard Buildings", "name": "1430 Massachusetts Avenue", "department": "Harvard Buildings", "lat": "42.374143", "lon": "-71.11927"}, {"id": "941", "buildingType": "Harvard Buildings", "name": "15 Cowperthwaite Street", "department": "Harvard Buildings", "lat": "42.369045", "lon": "-71.115477"}, {"id": "2684", "buildingType": "Harvard Buildings", "name": "15 Hawthorn Street", "department": "Harvard Buildings", "lat": "", "lon": ""}, {"id": "228", "buildingType": "Harvard Buildings", "name": "15 Speedway Avenue", "department": "Harvard Buildings", "lat": "42.363998", "lon": "-71.133183"}, {"id": "782", "buildingType": "Harvard Buildings", "name": "15 Ware Street", "department": "Harvard Buildings", "lat": "42.373088", "lon": "-71.113091"}, {"id": "942", "buildingType": "Harvard Buildings", "name": "15.5 Cowperthwaite Street", "department": "Harvard Buildings", "lat": "42.369045", "lon": "-71.115477"}, {"id": "2659", "buildingType": "Harvard Buildings", "name": "153-155 Mount Auburn Street", "department": "Harvard Buildings", "lat": "42.374535", "lon": "-71.125469"}, {"id": "2645", "buildingType": "Harvard Buildings", "name": "1542 Tremont Street", "department": "Harvard Buildings", "lat": "", "lon": ""}, {"id": "552", "buildingType": "Harvard Buildings", "name": "155 North Harvard Street", "department": "Harvard Buildings", "lat": "42.364508", "lon": "-71.128844"}, {"id": "1404", "buildingType": "Harvard Buildings", "name": "158 Longwood Avenue", "department": "Harvard Buildings", "lat": "42.335905", "lon": "-71.100667"}, {"id": "664", "buildingType": "Harvard Buildings", "name": "1581-1583 Massachusetts Avenue", "department": "Harvard Buildings", "lat": "42.379374", "lon": "-71.119401"}, {"id": "2658", "buildingType": "Harvard Buildings", "name": "16 Grant Street", "department": "Harvard Buildings", "lat": "42.369416", "lon": "-71.115545"}, {"id": "783", "buildingType": "Harvard Buildings", "name": "16 Prescott", "department": "Harvard Buildings", "lat": "42.373216", "lon": "-71.113662"}, {"id": "4936", "buildingType": "Harvard Buildings", "name": "160 Concord Avenue", "department": "Harvard Buildings", "lat": "42.381715", "lon": "-71.130736"}, {"id": "1405", "buildingType": "Harvard Buildings", "name": "160 Longwood Avenue", "department": "Harvard Buildings", "lat": "42.335973", "lon": "-71.100864"}, {"id": "665", "buildingType": "Harvard Buildings", "name": "1607-1615 Massachusetts Avenue", "department": "Harvard Buildings", "lat": "42.380166", "lon": "-71.119608"}, {"id": "4938", "buildingType": "Harvard Buildings", "name": "1613 Tremont Street", "department": "Harvard Buildings", "lat": "42.333738", "lon": "-71.102974"}, {"id": "2686", "buildingType": "Harvard Buildings", "name": "163 Walter Street", "department": "Harvard Buildings", "lat": "", "lon": ""}, {"id": "4866", "buildingType": "Harvard Buildings", "name": "1637 Massachusetts Avenue", "department": "Harvard Buildings", "lat": "42.38102", "lon": "-71.119427"}, {"id": "1126", "buildingType": "Harvard Buildings", "name": "1639-1633 Tremont Street", "department": "Harvard Buildings", "lat": "42.334045", "lon": "-71.103837"}, {"id": "1406", "buildingType": "Harvard Buildings", "name": "164 Longwood Avenue", "department": "Harvard Buildings", "lat": "42.335973", "lon": "-71.100864"}, {"id": "554", "buildingType": "Harvard Buildings", "name": "168 Western Avenue", "department": "Harvard Buildings", "lat": "42.362926", "lon": "-71.128461"}, {"id": "943", "buildingType": "Harvard Buildings", "name": "17 Grant Street", "department": "Harvard Buildings", "lat": "42.36973", "lon": "-71.115684"}, {"id": "202", "buildingType": "Harvard Buildings", "name": "1-7 Shaler Lane", "department": "Harvard Buildings", "lat": "42.374963", "lon": "-71.131437"}, {"id": "784", "buildingType": "Harvard Buildings", "name": "17 Sumner Road", "department": "Harvard Buildings", "lat": "42.376337", "lon": "-71.11278"}, {"id": "786", "buildingType": "Harvard Buildings", "name": "17 Ware Street", "department": "Harvard Buildings", "lat": "42.373209", "lon": "-71.113006"}, {"id": "624", "buildingType": "Harvard Buildings", "name": "1705 Massachusetts Avenue (Center for High Energy Metaphysics)", "department": "Harvard Buildings", "lat": "42.383326", "lon": "-71.119168"}, {"id": "944", "buildingType": "Harvard Buildings", "name": "17-19 South Street", "department": "Harvard Buildings", "lat": "42.371496", "lon": "-71.120202"}, {"id": "787", "buildingType": "Harvard Buildings", "name": "1727 Cambridge Street", "department": "Harvard Buildings", "lat": "42.375492", "lon": "-71.112857"}, {"id": "788", "buildingType": "Harvard Buildings", "name": "1746 Cambridge Street", "department": "Harvard Buildings", "lat": "42.375204", "lon": "-71.11364"}, {"id": "555", "buildingType": "Harvard Buildings", "name": "175 North Harvard Street", "department": "Harvard Buildings", "lat": "42.364156", "lon": "-71.129333"}, {"id": "2669", "buildingType": "Harvard Buildings", "name": "176 Lincoln Street", "department": "Harvard Buildings", "lat": "42.358617", "lon": "-71.138379"}, {"id": "790", "buildingType": "Harvard Buildings", "name": "18 Prescott Street", "department": "Harvard Buildings", "lat": "42.373347", "lon": "-71.113626"}, {"id": "2643", "buildingType": "Harvard Buildings", "name": "18 Sumner Road", "department": "Harvard Buildings", "lat": "42.376364", "lon": "-71.112206"}, {"id": "1407", "buildingType": "Harvard Buildings", "name": "180 Longwood Avenue", "department": "Harvard Buildings", "lat": "42.336055", "lon": "-71.101458"}, {"id": "666", "buildingType": "Harvard Buildings", "name": "18-18A Mellen Street", "department": "Harvard Buildings", "lat": "42.380572", "lon": "-71.118134"}, {"id": "2678", "buildingType": "Harvard Buildings", "name": "182 Western Avenue", "department": "Harvard Buildings", "lat": "42.362976", "lon": "-71.12937"}, {"id": "791", "buildingType": "Harvard Buildings", "name": "19 Ware Street", "department": "Harvard Buildings", "lat": "42.373384", "lon": "-71.112968"}, {"id": "2558", "buildingType": "Harvard Buildings", "name": "2 Arrow Street (see Zero Arrow Theatre)", "department": "Harvard Buildings", "lat": "42.370897", "lon": "-71.114478"}, {"id": "676", "buildingType": "Harvard Buildings", "name": "2 Divinity Avenue", "department": "Harvard Buildings", "lat": "42.377673", "lon": "-71.113725"}, {"id": "2656", "buildingType": "Harvard Buildings", "name": "2 Grant Street", "department": "Harvard Buildings", "lat": "42.369141", "lon": "-71.115061"}, {"id": "373", "buildingType": "Harvard Buildings", "name": "20 Garden Street", "department": "Harvard Buildings", "lat": "42.377651", "lon": "-71.123541"}, {"id": "669", "buildingType": "Harvard Buildings", "name": "20 Mellen Street", "department": "Harvard Buildings", "lat": "42.380584", "lon": "-71.118004"}, {"id": "1609", "buildingType": "Harvard Buildings", "name": "20 Prescott Street", "department": "Harvard Buildings", "lat": "42.373563", "lon": "-71.113485"}, {"id": "1581", "buildingType": "Harvard Buildings", "name": "20 Rear Garden Street", "department": "Harvard Buildings", "lat": "42.377651", "lon": "-71.123541"}, {"id": "4930", "buildingType": "Harvard Buildings", "name": "20 Sumner Road", "department": "Harvard Buildings", "lat": "42.376364", "lon": "-71.112206"}, {"id": "429", "buildingType": "Harvard Buildings", "name": "20 University Rd.", "department": "Harvard Buildings", "lat": "42.372356", "lon": "-71.123291"}, {"id": "819", "buildingType": "Harvard Buildings", "name": "20-20A Prescott Street", "department": "Harvard Buildings", "lat": "42.373563", "lon": "-71.113485"}, {"id": "2550", "buildingType": "Harvard Buildings", "name": "204 North Harvard Street", "department": "Harvard Buildings", "lat": "42.36281", "lon": "-71.129782"}, {"id": "2665", "buildingType": "Harvard Buildings", "name": "206-208 Everett Street", "department": "Harvard Buildings", "lat": "42.360118", "lon": "-71.136824"}, {"id": "315", "buildingType": "Harvard Buildings", "name": "21 Robinson Street", "department": "Harvard Buildings", "lat": "42.383711", "lon": "-71.126627"}, {"id": "2551", "buildingType": "Harvard Buildings", "name": "210 North Harvard Street", "department": "Harvard Buildings", "lat": "42.362529", "lon": "-71.130013"}, {"id": "557", "buildingType": "Harvard Buildings", "name": "219 Western Avenue", "department": "Harvard Buildings", "lat": "42.363931", "lon": "-71.130451"}, {"id": "821", "buildingType": "Harvard Buildings", "name": "22 Plympton Street", "department": "Harvard Buildings", "lat": "42.371975", "lon": "-71.116395"}, {"id": "820", "buildingType": "Harvard Buildings", "name": "22-24 Prescott Street", "department": "Harvard Buildings", "lat": "42.37382", "lon": "-71.113481"}, {"id": "234", "buildingType": "Harvard Buildings", "name": "224 Western Avenue", "department": "Harvard Buildings", "lat": "42.362609", "lon": "-71.131218"}, {"id": "667", "buildingType": "Harvard Buildings", "name": "23 Everett Street", "department": "Harvard Buildings", "lat": "42.380174", "lon": "-71.117961"}, {"id": "963", "buildingType": "Harvard Buildings", "name": "23-25 Flagg Street", "department": "Harvard Buildings", "lat": "42.367858", "lon": "-71.114546"}, {"id": "4889", "buildingType": "Harvard Buildings", "name": "24 Blackstone Street", "department": "Harvard Buildings", "lat": "42.363622", "lon": "-71.114941"}, {"id": "953", "buildingType": "Harvard Buildings", "name": "25 Mount Auburn Street", "department": "Harvard Buildings", "lat": "42.370872", "lon": "-71.114845"}, {"id": "558", "buildingType": "Harvard Buildings", "name": "25 Travis Street", "department": "Harvard Buildings", "lat": "42.362252", "lon": "-71.128976"}, {"id": "1562", "buildingType": "Harvard Buildings", "name": "26 Blackstone Street", "department": "Harvard Buildings", "lat": "42.363622", "lon": "-71.114941"}, {"id": "792", "buildingType": "Harvard Buildings", "name": "26-28 Church Street", "department": "Harvard Buildings", "lat": "42.374225", "lon": "-71.120009"}, {"id": "2492", "buildingType": "Harvard Buildings", "name": "267 Western Avenue", "department": "Harvard Buildings", "lat": "42.363538", "lon": "-71.133081"}, {"id": "668", "buildingType": "Harvard Buildings", "name": "27 Everett Street", "department": "Harvard Buildings", "lat": "42.380102", "lon": "-71.117602"}, {"id": "2491", "buildingType": "Harvard Buildings", "name": "273 Western Avenue", "department": "Harvard Buildings", "lat": "42.363569", "lon": "-71.133458"}, {"id": "2680", "buildingType": "Harvard Buildings", "name": "273R Western Avenue", "department": "Harvard Buildings", "lat": "", "lon": ""}, {"id": "2493", "buildingType": "Harvard Buildings", "name": "277 Western Avenue", "department": "Harvard Buildings", "lat": "42.363564", "lon": "-71.133743"}, {"id": "2631", "buildingType": "Harvard Buildings", "name": "28 Hingham Street", "department": "Harvard Buildings", "lat": "42.365044", "lon": "-71.115121"}, {"id": "2596", "buildingType": "Harvard Buildings", "name": "2-8 Shaler Lane", "department": "Harvard Buildings", "lat": "42.374983", "lon": "-71.131658"}, {"id": "556", "buildingType": "Harvard Buildings", "name": "28 Travis Street", "department": "Harvard Buildings", "lat": "42.362119", "lon": "-71.127656"}, {"id": "2494", "buildingType": "Harvard Buildings", "name": "281 Western Avenue", "department": "Harvard Buildings", "lat": "42.363707", "lon": "-71.133995"}, {"id": "235", "buildingType": "Harvard Buildings", "name": "285-287 Western Avenue", "department": "Harvard Buildings", "lat": "42.363846", "lon": "-71.134339"}, {"id": "254", "buildingType": "Harvard Buildings", "name": "288 North Harvard Street", "department": "Harvard Buildings", "lat": "42.360446", "lon": "-71.128652"}, {"id": "374", "buildingType": "Harvard Buildings", "name": "29 Garden Street", "department": "Harvard Buildings", "lat": "42.378962", "lon": "-71.12357"}, {"id": "955", "buildingType": "Harvard Buildings", "name": "3 Athens Terrace", "department": "Harvard Buildings", "lat": "42.369913", "lon": "-71.115195"}, {"id": "822", "buildingType": "Harvard Buildings", "name": "3 Bow Street", "department": "Harvard Buildings", "lat": "", "lon": ""}, {"id": "2673", "buildingType": "Harvard Buildings", "name": "3 Grant Street", "department": "Harvard Buildings", "lat": "42.369573", "lon": "-71.114935"}, {"id": "2547", "buildingType": "Harvard Buildings", "name": "3 Mellen Street", "department": "Harvard Buildings", "lat": "42.381104", "lon": "-71.119223"}, {"id": "625", "buildingType": "Harvard Buildings", "name": "3 Sacramento Street (Dudley Co-op)", "department": "Harvard Buildings", "lat": "42.382781", "lon": "-71.1191"}, {"id": "799", "buildingType": "Harvard Buildings", "name": "3 Sumner Rd. ", "department": "Harvard Buildings", "lat": "42.375747", "lon": "-71.112825"}, {"id": "2632", "buildingType": "Harvard Buildings", "name": "30 Hingham Street", "department": "Harvard Buildings", "lat": "42.36485", "lon": "-71.115155"}, {"id": "2681", "buildingType": "Harvard Buildings", "name": "304 Western Avenue", "department": "Harvard Buildings", "lat": "", "lon": ""}, {"id": "4855", "buildingType": "Harvard Buildings", "name": "32 Quincy St", "department": "Harvard Buildings", "lat": "42.374175", "lon": "-71.114357"}, {"id": "793", "buildingType": "Harvard Buildings", "name": "32-42 Church Street", "department": "Harvard Buildings", "lat": "42.374221", "lon": "-71.120347"}, {"id": "201", "buildingType": "Harvard Buildings", "name": "33 Elmwood Avenue", "department": "Harvard Buildings", "lat": "42.37545", "lon": "-71.138398"}, {"id": "956", "buildingType": "Harvard Buildings", "name": "33-35 Banks Street", "department": "Harvard Buildings", "lat": "42.369941", "lon": "-71.114709"}, {"id": "368", "buildingType": "Harvard Buildings", "name": "34 Concord Avenue", "department": "Harvard Buildings", "lat": "42.379686", "lon": "-71.12659"}, {"id": "678", "buildingType": "Harvard Buildings", "name": "34 Kirkland Street", "department": "Harvard Buildings", "lat": "42.37656", "lon": "-71.113079"}, {"id": "954", "buildingType": "Harvard Buildings", "name": "34 Mount Auburn Street", "department": "Harvard Buildings", "lat": "", "lon": ""}, {"id": "1127", "buildingType": "Harvard Buildings", "name": "35 Wigglesworth Street", "department": "Harvard Buildings", "lat": "", "lon": ""}, {"id": "369", "buildingType": "Harvard Buildings", "name": "36 Concord Avenue", "department": "Harvard Buildings", "lat": "42.379625", "lon": "-71.127054"}, {"id": "232", "buildingType": "Harvard Buildings", "name": "367 Western Avenue", "department": "Harvard Buildings", "lat": "42.363062", "lon": "-71.138176"}, {"id": "2672", "buildingType": "Harvard Buildings", "name": "37 Banks Street", "department": "Harvard Buildings", "lat": "42.369746", "lon": "-71.114748"}, {"id": "100", "buildingType": "Harvard Buildings", "name": "370 Western Avenue", "department": "Harvard Buildings", "lat": "42.361007", "lon": "-71.137798"}, {"id": "370", "buildingType": "Harvard Buildings", "name": "38 Concord Avenue", "department": "Harvard Buildings", "lat": "42.379736", "lon": "-71.127264"}, {"id": "679", "buildingType": "Harvard Buildings", "name": "38 Kirkland Street", "department": "Harvard Buildings", "lat": "42.376624", "lon": "-71.112633"}, {"id": "2541", "buildingType": "Harvard Buildings", "name": "38 Oxford Street", "department": "Harvard Buildings", "lat": "42.379908", "lon": "-71.114555"}, {"id": "1021", "buildingType": "Harvard Buildings", "name": "381-383 Western Avenue", "department": "Harvard Buildings", "lat": "42.364581", "lon": "-71.114922"}, {"id": "2633", "buildingType": "Harvard Buildings", "name": "387 Western Avenue", "department": "Harvard Buildings", "lat": "42.364619", "lon": "-71.11518"}, {"id": "957", "buildingType": "Harvard Buildings", "name": "4 Grant Street", "department": "Harvard Buildings", "lat": "42.369266", "lon": "-71.114984"}, {"id": "371", "buildingType": "Harvard Buildings", "name": "40 Concord Avenue", "department": "Harvard Buildings", "lat": "42.379969", "lon": "-71.127132"}, {"id": "4943", "buildingType": "Harvard Buildings", "name": "40 Kirkland Street", "department": "Harvard Buildings", "lat": "42.376814", "lon": "-71.112141"}, {"id": "801", "buildingType": "Harvard Buildings", "name": "41 Winthrop Street", "department": "Harvard Buildings", "lat": "42.371689", "lon": "-71.119139"}, {"id": "958", "buildingType": "Harvard Buildings", "name": "41-43 Banks", "department": "Harvard Buildings", "lat": "42.369601", "lon": "-71.114745"}, {"id": "2668", "buildingType": "Harvard Buildings", "name": "415 Western Avenue", "department": "Harvard Buildings", "lat": "42.362735", "lon": "-71.140398"}, {"id": "4944", "buildingType": "Harvard Buildings", "name": "42 Kirkland Street", "department": "Harvard Buildings", "lat": "42.376918", "lon": "-71.111853"}, {"id": "675", "buildingType": "Harvard Buildings", "name": "42 Oxford Street", "department": "Harvard Buildings", "lat": "42.379908", "lon": "-71.114555"}, {"id": "4882", "buildingType": "Harvard Buildings", "name": "44 Brattle Street", "department": "Harvard Buildings", "lat": "42.373208", "lon": "-71.124824"}, {"id": "2679", "buildingType": "Harvard Buildings", "name": "445-447 Western Avenue", "department": "Harvard Buildings", "lat": "42.362473", "lon": "-71.141605"}, {"id": "2662", "buildingType": "Harvard Buildings", "name": "449-451 Western Avenue", "department": "Harvard Buildings", "lat": "42.362507", "lon": "-71.141903"}, {"id": "431", "buildingType": "Harvard Buildings", "name": "44R Brattle Street", "department": "Harvard Buildings", "lat": "42.373522", "lon": "-71.122306"}, {"id": "959", "buildingType": "Harvard Buildings", "name": "4-6 Athens Terrace", "department": "Harvard Buildings", "lat": "42.370124", "lon": "-71.1151"}, {"id": "950", "buildingType": "Harvard Buildings", "name": "4-6 Mount Auburn Street", "department": "Harvard Buildings", "lat": "42.37008", "lon": "-71.113775"}, {"id": "797", "buildingType": "Harvard Buildings", "name": "472-474 Broadway", "department": "Harvard Buildings", "lat": "42.37404", "lon": "-71.113398"}, {"id": "960", "buildingType": "Harvard Buildings", "name": "47-49 Banks Street", "department": "Harvard Buildings", "lat": "42.369484", "lon": "-71.114791"}, {"id": "430", "buildingType": "Harvard Buildings", "name": "5 Bennett Street", "department": "Harvard Buildings", "lat": "42.371883", "lon": "-71.122817"}, {"id": "1218", "buildingType": "Harvard Buildings", "name": "5 Bryant Street", "department": "Harvard Buildings", "lat": "42.379809", "lon": "-71.111632"}, {"id": "2629", "buildingType": "Harvard Buildings", "name": "5 Cowperthwaite Street", "department": "Harvard Buildings", "lat": "42.369061", "lon": "-71.115405"}, {"id": "2674", "buildingType": "Harvard Buildings", "name": "5 Grant Street", "department": "Harvard Buildings", "lat": "42.369625", "lon": "-71.115137"}, {"id": "2548", "buildingType": "Harvard Buildings", "name": "5 Mellen Street", "department": "Harvard Buildings", "lat": "42.381005", "lon": "-71.119145"}, {"id": "626", "buildingType": "Harvard Buildings", "name": "5 Sacramento Street", "department": "Harvard Buildings", "lat": "42.382796", "lon": "-71.11879"}, {"id": "808", "buildingType": "Harvard Buildings", "name": "50 Church Street", "department": "Harvard Buildings", "lat": "42.373862", "lon": "-71.120401"}, {"id": "2509", "buildingType": "Harvard Buildings", "name": "501-505 Western Ave.", "department": "Harvard Buildings", "lat": "42.361949", "lon": "-71.144474"}, {"id": "794", "buildingType": "Harvard Buildings", "name": "51 Brattle Street", "department": "Harvard Buildings", "lat": "42.374494", "lon": "-71.121491"}, {"id": "810", "buildingType": "Harvard Buildings", "name": "52 Dunster Street", "department": "Harvard Buildings", "lat": "42.371831", "lon": "-71.119358"}, {"id": "795", "buildingType": "Harvard Buildings", "name": "53 Church Street", "department": "Harvard Buildings", "lat": "42.374382", "lon": "-71.121038"}, {"id": "811", "buildingType": "Harvard Buildings", "name": "53 Dunster Street", "department": "Harvard Buildings", "lat": "42.371971", "lon": "-71.119732"}, {"id": "796", "buildingType": "Harvard Buildings", "name": "53A Church Street", "department": "Harvard Buildings", "lat": "42.374382", "lon": "-71.121038"}, {"id": "1565", "buildingType": "Harvard Buildings", "name": "54 Dunster Street", "department": "Harvard Buildings", "lat": "42.371831", "lon": "-71.119358"}, {"id": "101", "buildingType": "Harvard Buildings", "name": "55 Antwerp Street", "department": "Harvard Buildings", "lat": "", "lon": ""}, {"id": "1217", "buildingType": "Harvard Buildings", "name": "56 Francis Avenue", "department": "Harvard Buildings", "lat": "42.380732", "lon": "-71.112093"}, {"id": "802", "buildingType": "Harvard Buildings", "name": "5-7 Linden Street", "department": "Harvard Buildings", "lat": "42.372588", "lon": "-71.117477"}, {"id": "2634", "buildingType": "Harvard Buildings", "name": "59 Banks Street", "department": "Harvard Buildings", "lat": "42.36924", "lon": "-71.114809"}, {"id": "627", "buildingType": "Harvard Buildings", "name": "5A Sacramento Street", "department": "Harvard Buildings", "lat": "42.383101", "lon": "-71.118749"}, {"id": "2657", "buildingType": "Harvard Buildings", "name": "6 Grant Street", "department": "Harvard Buildings", "lat": "42.369324", "lon": "-71.115098"}, {"id": "961", "buildingType": "Harvard Buildings", "name": "6.5 Grant Street", "department": "Harvard Buildings", "lat": "42.369339", "lon": "-71.115153"}, {"id": "812", "buildingType": "Harvard Buildings", "name": "60 JFK Street", "department": "Harvard Buildings", "lat": "42.371632", "lon": "-71.120622"}, {"id": "674", "buildingType": "Harvard Buildings", "name": "60 Oxford Street", "department": "Harvard Buildings", "lat": "42.380436", "lon": "-71.116088"}, {"id": "1220", "buildingType": "Harvard Buildings", "name": "61 Kirkland Street", "department": "Harvard Buildings", "lat": "42.377909", "lon": "-71.11023"}, {"id": "2485", "buildingType": "Harvard Buildings", "name": "625 Massachusetts Avenue", "department": "Harvard Buildings", "lat": "42.365723", "lon": "-71.10315"}, {"id": "1408", "buildingType": "Harvard Buildings", "name": "641 Huntington Avenue", "department": "Harvard Buildings", "lat": "42.33585", "lon": "-71.100949"}, {"id": "1409", "buildingType": "Harvard Buildings", "name": "643 Huntington Avenue", "department": "Harvard Buildings", "lat": "42.335744", "lon": "-71.101083"}, {"id": "813", "buildingType": "Harvard Buildings", "name": "65-67 Winthrop Street", "department": "Harvard Buildings", "lat": "42.372076", "lon": "-71.119979"}, {"id": "2685", "buildingType": "Harvard Buildings", "name": "65-79 Seattle Street", "department": "Harvard Buildings", "lat": "", "lon": ""}, {"id": "804", "buildingType": "Harvard Buildings", "name": "65R Mount Auburn Street", "department": "Harvard Buildings", "lat": "42.372231", "lon": "-71.118038"}, {"id": "2630", "buildingType": "Harvard Buildings", "name": "69 Banks Street", "department": "Harvard Buildings", "lat": "42.368893", "lon": "-71.114865"}, {"id": "946", "buildingType": "Harvard Buildings", "name": "69 Dunster Street", "department": "Harvard Buildings", "lat": "42.371566", "lon": "-71.119936"}, {"id": "1219", "buildingType": "Harvard Buildings", "name": "7 Bryant Street", "department": "Harvard Buildings", "lat": "42.379869", "lon": "-71.110759"}, {"id": "2675", "buildingType": "Harvard Buildings", "name": "7 Grant Street", "department": "Harvard Buildings", "lat": "42.369852", "lon": "-71.115098"}, {"id": "800", "buildingType": "Harvard Buildings", "name": "7 Sumner Rd.", "department": "Harvard Buildings", "lat": "42.375894", "lon": "-71.112858"}, {"id": "816", "buildingType": "Harvard Buildings", "name": "7 Ware Street", "department": "Harvard Buildings", "lat": "42.372419", "lon": "-71.113444"}, {"id": "1128", "buildingType": "Harvard Buildings", "name": "708 Huntington Avenue", "department": "Harvard Buildings", "lat": "42.33428", "lon": "-71.103726"}, {"id": "1129", "buildingType": "Harvard Buildings", "name": "716 Huntington Avenue", "department": "Harvard Buildings", "lat": "42.334214", "lon": "-71.10411"}, {"id": "947", "buildingType": "Harvard Buildings", "name": "71-77 Dunster Street", "department": "Harvard Buildings", "lat": "42.371404", "lon": "-71.120003"}, {"id": "1130", "buildingType": "Harvard Buildings", "name": "718 Huntington Avenue", "department": "Harvard Buildings", "lat": "42.33412", "lon": "-71.104209"}, {"id": "805", "buildingType": "Harvard Buildings", "name": "74 Mount Auburn Street", "department": "Harvard Buildings", "lat": "42.371768", "lon": "-71.11854"}, {"id": "806", "buildingType": "Harvard Buildings", "name": "78 Mount Auburn Street", "department": "Harvard Buildings", "lat": "42.371985", "lon": "-71.11915"}, {"id": "5002", "buildingType": "Harvard Buildings", "name": "784 Memorial Drive", "department": "Harvard Buildings", "lat": "", "lon": ""}, {"id": "948", "buildingType": "Harvard Buildings", "name": "79 JFK Street", "department": "Harvard Buildings", "lat": "42.371418", "lon": "-71.121536"}, {"id": "962", "buildingType": "Harvard Buildings", "name": "8 Grant Street", "department": "Harvard Buildings", "lat": "42.369368", "lon": "-71.115285"}, {"id": "807", "buildingType": "Harvard Buildings", "name": "8 Holyoke Street", "department": "Harvard Buildings", "lat": "42.37269", "lon": "-71.117959"}, {"id": "823", "buildingType": "Harvard Buildings", "name": "8 Plympton Street/Hampden Hall", "department": "Harvard Buildings", "lat": "42.372451", "lon": "-71.116301"}, {"id": "817", "buildingType": "Harvard Buildings", "name": "8 Prescott Street", "department": "Harvard Buildings", "lat": "42.372579", "lon": "-71.113842"}, {"id": "1570", "buildingType": "Harvard Buildings", "name": "8 Story Street", "department": "Harvard Buildings", "lat": "42.373898", "lon": "-71.122179"}, {"id": "951", "buildingType": "Harvard Buildings", "name": "8-10 Mount Auburn Street", "department": "Harvard Buildings", "lat": "42.370196", "lon": "-71.114136"}, {"id": "432", "buildingType": "Harvard Buildings", "name": "8-12 Story Street", "department": "Harvard Buildings", "lat": "42.373898", "lon": "-71.122179"}, {"id": "428", "buildingType": "Harvard Buildings", "name": "83 Brattle Street", "department": "Harvard Buildings", "lat": "42.375886", "lon": "-71.12373"}, {"id": "255", "buildingType": "Harvard Buildings", "name": "84 Seattle Street", "department": "Harvard Buildings", "lat": "42.361238", "lon": "-71.126284"}, {"id": "798", "buildingType": "Harvard Buildings", "name": "85-95 Prescott Street", "department": "Harvard Buildings", "lat": "42.374845", "lon": "-71.113779"}, {"id": "1022", "buildingType": "Harvard Buildings", "name": "870 Memorial Dr.", "department": "Harvard Buildings", "lat": "42.369061", "lon": "-71.115405"}, {"id": "952", "buildingType": "Harvard Buildings", "name": "8A Mount Auburn Street", "department": "Harvard Buildings", "lat": "42.369738", "lon": "-71.113955"}, {"id": "4942", "buildingType": "Harvard Buildings", "name": "9 Ash Street", "department": "Harvard Buildings", "lat": "42.375335", "lon": "-71.124911"}, {"id": "824", "buildingType": "Harvard Buildings", "name": "9 Bow Street", "department": "Harvard Buildings", "lat": "42.37187", "lon": "-71.115846"}, {"id": "2676", "buildingType": "Harvard Buildings", "name": "9 Grant Street", "department": "Harvard Buildings", "lat": "42.369666", "lon": "-71.115294"}, {"id": "680", "buildingType": "Harvard Buildings", "name": "9 Kirkland Place", "department": "Harvard Buildings", "lat": "42.377835", "lon": "-71.113224"}, {"id": "559", "buildingType": "Harvard Buildings", "name": "9 Travis Street", "department": "Harvard Buildings", "lat": "42.362765", "lon": "-71.128987"}, {"id": "2683", "buildingType": "Harvard Buildings", "name": "90 Antwerp Street", "department": "Harvard Buildings", "lat": "", "lon": ""}, {"id": "814", "buildingType": "Harvard Buildings", "name": "90 Mount Auburn Street", "department": "Harvard Buildings", "lat": "42.372268", "lon": "-71.119865"}, {"id": "252", "buildingType": "Harvard Buildings", "name": "90 Seattle Street ", "department": "Harvard Buildings", "lat": "", "lon": ""}, {"id": "4911", "buildingType": "Harvard Buildings", "name": "90 Smith Street", "department": "Harvard Buildings", "lat": "42.333954", "lon": "-71.09755"}, {"id": "818", "buildingType": "Harvard Buildings", "name": "9-13A Ware Street", "department": "Harvard Buildings", "lat": "42.372763", "lon": "-71.113351"}, {"id": "815", "buildingType": "Harvard Buildings", "name": "94 Mount Auburn Street", "department": "Harvard Buildings", "lat": "42.372268", "lon": "-71.119865"}, {"id": "688", "buildingType": "Harvard Buildings", "name": "Adolphus Busch Hall (27 Kirkland Street)", "department": "Harvard Buildings", "lat": "42.376985", "lon": "-71.114302"}, {"id": "825", "buildingType": "Harvard Buildings", "name": "Advocate (21 South Street)", "department": "Harvard Buildings", "lat": "42.371567", "lon": "-71.120469"}, {"id": "433", "buildingType": "Harvard Buildings", "name": "Agassiz House (5 James Street)", "department": "Harvard Buildings", "lat": "42.376086", "lon": "-71.123162"}, {"id": "560", "buildingType": "Harvard Buildings", "name": "Aldrich Hall", "department": "Harvard Buildings", "lat": "42.365904", "lon": "-71.122094"}, {"id": "2556", "buildingType": "Harvard Buildings", "name": "Allston Science Complex", "department": "Harvard Buildings", "lat": "42.362703", "lon": "-71.126011"}, {"id": "434", "buildingType": "Harvard Buildings", "name": "Alumnae House", "department": "Harvard Buildings", "lat": "42.375812", "lon": "-71.123529"}, {"id": "681", "buildingType": "Harvard Buildings", "name": "Ames Hall", "department": "Harvard Buildings", "lat": "42.379572", "lon": "-71.117752"}, {"id": "682", "buildingType": "Harvard Buildings", "name": "Andover Hall (45 Francis Ave)", "department": "Harvard Buildings", "lat": "42.37994", "lon": "-71.112993"}, {"id": "4932", "buildingType": "Harvard Buildings", "name": "Andover-Harvard Theological Library", "department": "Harvard Buildings", "lat": "42.3797", "lon": "-71.11334"}, {"id": "827", "buildingType": "Harvard Buildings", "name": "Apley Court", "department": "Harvard Buildings", "lat": "42.372374", "lon": "-71.118141"}, {"id": "828", "buildingType": "Harvard Buildings", "name": "Apthorp House", "department": "Harvard Buildings", "lat": "42.372198", "lon": "-71.117008"}, {"id": "683", "buildingType": "Harvard Buildings", "name": "Areeda Hall", "department": "Harvard Buildings", "lat": "42.377958", "lon": "-71.118577"}, {"id": "1131", "buildingType": "Harvard Buildings", "name": "Armenise ", "department": "Harvard Buildings", "lat": "42.336472", "lon": "-71.102921"}, {"id": "1410", "buildingType": "Harvard Buildings", "name": "Armenise Building 1", "department": "Harvard Buildings", "lat": "42.336472", "lon": "-71.102921"}, {"id": "1411", "buildingType": "Harvard Buildings", "name": "Armenise Building 2", "department": "Harvard Buildings", "lat": "42.336472", "lon": "-71.102921"}, {"id": "1", "buildingType": "Harvard Buildings", "name": "Arsenal Building 117", "department": "Harvard Buildings", "lat": "42.361332", "lon": "-71.164756"}, {"id": "2", "buildingType": "Harvard Buildings", "name": "Arsenal Building 118", "department": "Harvard Buildings", "lat": "42.361628", "lon": "-71.164754"}, {"id": "3", "buildingType": "Harvard Buildings", "name": "Arsenal Building 131", "department": "Harvard Buildings", "lat": "42.361613", "lon": "-71.163572"}, {"id": "15", "buildingType": "Harvard Buildings", "name": "Arsenal Building 311", "department": "Harvard Buildings", "lat": "42.363504", "lon": "-71.166971"}, {"id": "10", "buildingType": "Harvard Buildings", "name": "Arsenal Building 312", "department": "Harvard Buildings", "lat": "42.362735", "lon": "-71.164681"}, {"id": "11", "buildingType": "Harvard Buildings", "name": "Arsenal Building 313", "department": "Harvard Buildings", "lat": "42.362865", "lon": "-71.163688"}, {"id": "12", "buildingType": "Harvard Buildings", "name": "Arsenal Building 37", "department": "Harvard Buildings", "lat": "42.362415", "lon": "-71.163719"}, {"id": "26", "buildingType": "Harvard Buildings", "name": "Arsenal Building 39 Harvard Business School Publishing (300 N Beacon St, Watertown)", "department": "Harvard Buildings", "lat": "42.363084", "lon": "-71.168436"}, {"id": "14", "buildingType": "Harvard Buildings", "name": "Arsenal Building 43", "department": "Harvard Buildings", "lat": "42.363319", "lon": "-71.163735"}, {"id": "13", "buildingType": "Harvard Buildings", "name": "Arsenal Building 60", "department": "Harvard Buildings", "lat": "42.361816", "lon": "-71.165257"}, {"id": "16", "buildingType": "Harvard Buildings", "name": "Arsenal Building 97", "department": "Harvard Buildings", "lat": "42.362628", "lon": "-71.167204"}, {"id": "17", "buildingType": "Harvard Buildings", "name": "Arsenal Parking Garage ", "department": "Harvard Buildings", "lat": "42.362597", "lon": "-71.165801"}, {"id": "829", "buildingType": "Harvard Buildings", "name": "Art Studios", "department": "Harvard Buildings", "lat": "42.372317", "lon": "-71.117035"}, {"id": "4856", "buildingType": "Harvard Buildings", "name": "Arthur M. Sackler Building", "department": "Harvard Buildings", "lat": "42.375133", "lon": "-71.114088"}, {"id": "684", "buildingType": "Harvard Buildings", "name": "Austin Hall", "department": "Harvard Buildings", "lat": "42.377078", "lon": "-71.118789"}, {"id": "964", "buildingType": "Harvard Buildings", "name": "Baker Hall (Business School) - see Esteves Hall", "department": "Harvard Buildings", "lat": "42.367288", "lon": "-71.120438"}, {"id": "685", "buildingType": "Harvard Buildings", "name": "Baker Hall (Law School, 5 Mellen Street)", "department": "Harvard Buildings", "lat": "42.381005", "lon": "-71.119145"}, {"id": "830", "buildingType": "Harvard Buildings", "name": "Barker Center (12 Quincy Street)", "department": "Harvard Buildings", "lat": "42.37262", "lon": "-71.114523"}, {"id": "375", "buildingType": "Harvard Buildings", "name": "Barnard Hall", "department": "Harvard Buildings", "lat": "42.38103", "lon": "-71.124533"}, {"id": "4900", "buildingType": "Harvard Buildings", "name": "Batten Hall", "department": "Harvard Buildings", "lat": "42.364076", "lon": "-71.124137"}, {"id": "686", "buildingType": "Harvard Buildings", "name": "Bauer Life Sciences Building", "department": "Harvard Buildings", "lat": "42.377772", "lon": "-71.114922"}, {"id": "628", "buildingType": "Harvard Buildings", "name": "Beckwith Circle Building A", "department": "Harvard Buildings", "lat": "42.382217", "lon": "-71.111791"}, {"id": "2564", "buildingType": "Harvard Buildings", "name": "Beckwith Circle Building B", "department": "Harvard Buildings", "lat": "42.382116", "lon": "-71.111602"}, {"id": "2563", "buildingType": "Harvard Buildings", "name": "Beckwith Circle Building C", "department": "Harvard Buildings", "lat": "42.382081", "lon": "-71.111912"}, {"id": "2562", "buildingType": "Harvard Buildings", "name": "Beckwith Circle Building D", "department": "Harvard Buildings", "lat": "42.382206", "lon": "-71.111468"}, {"id": "2561", "buildingType": "Harvard Buildings", "name": "Beckwith Circle Building E", "department": "Harvard Buildings", "lat": "42.382324", "lon": "-71.11163"}, {"id": "502", "buildingType": "Harvard Buildings", "name": "Belfer Center", "department": "Harvard Buildings", "lat": "42.371418", "lon": "-71.121536"}, {"id": "5007", "buildingType": "Harvard Buildings", "name": "Beren", "department": "Harvard Buildings", "lat": "", "lon": ""}, {"id": "504", "buildingType": "Harvard Buildings", "name": "Beren Tennis Center Pavilion ", "department": "Harvard Buildings", "lat": "42.36926", "lon": "-71.128021"}, {"id": "376", "buildingType": "Harvard Buildings", "name": "Bertram Hall", "department": "Harvard Buildings", "lat": "42.380765", "lon": "-71.12409"}, {"id": "316", "buildingType": "Harvard Buildings", "name": "Bingham Hall", "department": "Harvard Buildings", "lat": "42.381822", "lon": "-71.126057"}, {"id": "1572", "buildingType": "Harvard Buildings", "name": "Bio Labs", "department": "Harvard Buildings", "lat": "42.378775", "lon": "-71.113656"}, {"id": "1630", "buildingType": "Harvard Buildings", "name": "Biolabs (Biological Labs)", "department": "Harvard Buildings", "lat": "42.378775", "lon": "-71.113656"}, {"id": "687", "buildingType": "Harvard Buildings", "name": "Biological Laboratories (16 Divinity Ave)", "department": "Harvard Buildings", "lat": "42.378775", "lon": "-71.113656"}, {"id": "2644", "buildingType": "Harvard Buildings", "name": "Biological Research Infrastructure (BRI)", "department": "Harvard Buildings", "lat": "42.378811", "lon": "-71.113905"}, {"id": "2565", "buildingType": "Harvard Buildings", "name": "Blackstone North (46 Blackstone St)", "department": "Harvard Buildings", "lat": "42.36421", "lon": "-71.115117"}, {"id": "2566", "buildingType": "Harvard Buildings", "name": "Blackstone South (46 Blackstone St)", "department": "Harvard Buildings", "lat": "42.363622", "lon": "-71.114941"}, {"id": "1561", "buildingType": "Harvard Buildings", "name": "Blackstone Steam Plant (46 Blackstone St)", "department": "Harvard Buildings", "lat": "42.364031", "lon": "-71.115593"}, {"id": "2567", "buildingType": "Harvard Buildings", "name": "Blackstone West", "department": "Harvard Buildings", "lat": "42.363556", "lon": "-71.115762"}, {"id": "505", "buildingType": "Harvard Buildings", "name": "Blodgett Pool", "department": "Harvard Buildings", "lat": "42.367889", "lon": "-71.124832"}, {"id": "2498", "buildingType": "Harvard Buildings", "name": "Bloomberg (Baker Library)", "department": "Harvard Buildings", "lat": "42.36642", "lon": "-71.122795"}, {"id": "5006", "buildingType": "Harvard Buildings", "name": "Blyth", "department": "Harvard Buildings", "lat": "", "lon": ""}, {"id": "294", "buildingType": "Harvard Buildings", "name": "Bonsai House", "department": "Harvard Buildings", "lat": "", "lon": ""}, {"id": "2571", "buildingType": "Harvard Buildings", "name": "Botanic Gardens Bldg A", "department": "Harvard Buildings", "lat": "42.383585", "lon": "-71.125523"}, {"id": "2570", "buildingType": "Harvard Buildings", "name": "Botanic Gardens Bldg B", "department": "Harvard Buildings", "lat": "42.383014", "lon": "-71.125394"}, {"id": "2569", "buildingType": "Harvard Buildings", "name": "Botanic Gardens Bldg C", "department": "Harvard Buildings", "lat": "42.382958", "lon": "-71.126049"}, {"id": "317", "buildingType": "Harvard Buildings", "name": "Botanic Gardens Bldg D", "department": "Harvard Buildings", "lat": "42.382571", "lon": "-71.126057"}, {"id": "2572", "buildingType": "Harvard Buildings", "name": "Botanic Gardens Bldg E", "department": "Harvard Buildings", "lat": "42.382697", "lon": "-71.126607"}, {"id": "2573", "buildingType": "Harvard Buildings", "name": "Botanic Gardens Bldg F", "department": "Harvard Buildings", "lat": "42.382366", "lon": "-71.126664"}, {"id": "2574", "buildingType": "Harvard Buildings", "name": "Botanic Gardens Bldg G", "department": "Harvard Buildings", "lat": "42.383486", "lon": "-71.126173"}, {"id": "2654", "buildingType": "Harvard Buildings", "name": "Botanic Gardens Bldg H", "department": "Harvard Buildings", "lat": "42.382622", "lon": "-71.1269"}, {"id": "2655", "buildingType": "Harvard Buildings", "name": "Botanic Gardens Bldg I", "department": "Harvard Buildings", "lat": "42.382537", "lon": "-71.127037"}, {"id": "2568", "buildingType": "Harvard Buildings", "name": "Botanic Gardens Childcare Center", "department": "Harvard Buildings", "lat": "42.383194", "lon": "-71.126612"}, {"id": "831", "buildingType": "Harvard Buildings", "name": "Boylston Hall", "department": "Harvard Buildings", "lat": "42.373338", "lon": "-71.117302"}, {"id": "506", "buildingType": "Harvard Buildings", "name": "Briggs Cage (see Lavietes Pavilion)", "department": "Harvard Buildings", "lat": "42.368221", "lon": "-71.125289"}, {"id": "318", "buildingType": "Harvard Buildings", "name": "Briggs Hall ", "department": "Harvard Buildings", "lat": "42.381413", "lon": "-71.12485"}, {"id": "507", "buildingType": "Harvard Buildings", "name": "Bright Hockey Center", "department": "Harvard Buildings", "lat": "42.368375", "lon": "-71.127219"}, {"id": "832", "buildingType": "Harvard Buildings", "name": "Broadway Garage", "department": "Harvard Buildings", "lat": "42.374542", "lon": "-71.11284"}, {"id": "965", "buildingType": "Harvard Buildings", "name": "Bryan Hall", "department": "Harvard Buildings", "lat": "42.371304", "lon": "-71.12033"}, {"id": "1023", "buildingType": "Harvard Buildings", "name": "Burden Hall", "department": "Harvard Buildings", "lat": "42.365491", "lon": "-71.121035"}, {"id": "1495", "buildingType": "Harvard Buildings", "name": "Burr Hall", "department": "Harvard Buildings", "lat": "42.37262", "lon": "-71.114523"}, {"id": "436", "buildingType": "Harvard Buildings", "name": "Byerly Hall (8 Garden Street)", "department": "Harvard Buildings", "lat": "42.375998", "lon": "-71.12185"}, {"id": "319", "buildingType": "Harvard Buildings", "name": "Cabot Hall", "department": "Harvard Buildings", "lat": "42.381781", "lon": "-71.123877"}, {"id": "861", "buildingType": "Harvard Buildings", "name": "Cambridge Queens Head Pub (Loker Commons)", "department": "Harvard Buildings", "lat": "42.375977", "lon": "-71.115082"}, {"id": "2577", "buildingType": "Harvard Buildings", "name": "Canaday Hall A", "department": "Harvard Buildings", "lat": "42.375279", "lon": "-71.116278"}, {"id": "835", "buildingType": "Harvard Buildings", "name": "Canaday Hall B", "department": "Harvard Buildings", "lat": "42.375446", "lon": "-71.115983"}, {"id": "2578", "buildingType": "Harvard Buildings", "name": "Canaday Hall C", "department": "Harvard Buildings", "lat": "42.375151", "lon": "-71.115604"}, {"id": "836", "buildingType": "Harvard Buildings", "name": "Carpenter Center for Visual Arts (24 Quincy St)", "department": "Harvard Buildings", "lat": "42.373617", "lon": "-71.114283"}, {"id": "1505", "buildingType": "Harvard Buildings", "name": "Carriage House (56 Francis Avenue)", "department": "Harvard Buildings", "lat": "42.380732", "lon": "-71.112093"}, {"id": "4991", "buildingType": "Harvard Buildings", "name": "Casperson Student Center", "department": "Harvard Buildings", "lat": "42.379374", "lon": "-71.119401"}, {"id": "2693", "buildingType": "Harvard Buildings", "name": "Casperson Student Center (Wasserstein Hall)", "department": "Harvard Buildings", "lat": "42.379374", "lon": "-71.119401"}, {"id": "2129", "buildingType": "Harvard Buildings", "name": "Center for Government and International Studies (CGIS)", "department": "Harvard Buildings", "lat": "42.375638", "lon": "-71.113246"}, {"id": "2128", "buildingType": "Harvard Buildings", "name": "CGIS South (1730 Cambridge Street)", "department": "Harvard Buildings", "lat": "42.375029", "lon": "-71.113141"}, {"id": "508", "buildingType": "Harvard Buildings", "name": "Chase Hall", "department": "Harvard Buildings", "lat": "42.366977", "lon": "-71.12193"}, {"id": "689", "buildingType": "Harvard Buildings", "name": "Child Hall", "department": "Harvard Buildings", "lat": "42.379021", "lon": "-71.117896"}, {"id": "563", "buildingType": "Harvard Buildings", "name": "Class of 1959 Memorial Chapel", "department": "Harvard Buildings", "lat": "42.365882", "lon": "-71.123819"}, {"id": "837", "buildingType": "Harvard Buildings", "name": "Claverly Hall", "department": "Harvard Buildings", "lat": "42.372088", "lon": "-71.117694"},